[{"name":"10 Acre Park","locationName":"Marseilles, IL","holeCount":9,"latitude":41.329953,"longitude":-88.725091,"courseId":"10-acre-park"},{"name":"1000 Acres Ranch","locationName":"Stony Creek, NY","holeCount":18,"latitude":43.447538,"longitude":-73.862001,"courseId":"1000-acres-ranch"},{"name":"10-3 @ CB - Long","locationName":"Mt. Crested Butte, CO","holeCount":18,"latitude":38.90051,"longitude":-106.965642,"courseId":"103-cb-long"},{"name":"10-3 @ CB - Short","locationName":"Mt. Crested Butte, CO","holeCount":18,"latitude":38.90051,"longitude":-106.965642,"courseId":"103-cb-short"},{"name":"17 Wing","locationName":"Winnipeg, MB","holeCount":18,"latitude":49.889967,"longitude":-97.25797,"courseId":"17-wing"},{"name":"1st Choice","locationName":"Decatur, TX","holeCount":9,"latitude":33.243911,"longitude":-97.608773,"courseId":"1st-choice"},{"name":"20th Street Community Park","locationName":"Chico, CA","holeCount":6,"latitude":39.730987,"longitude":-121.813756,"courseId":"20th-street-community-park"},{"name":"22 Birdwalk","locationName":"Sundre, AB","holeCount":9,"latitude":51.99734,"longitude":-114.6712,"courseId":"22-birdwalk"},{"name":"22nd St. Park","locationName":"Tampa, FL","holeCount":18,"latitude":28.018253,"longitude":-82.434328,"courseId":"22nd-st-park"},{"name":"3 Blind Mice","locationName":"Penticton, BC","holeCount":18,"latitude":49.543287,"longitude":-119.557993,"courseId":"3-blind-mice"},{"name":"3 Creeks","locationName":"Rising Sun, MD","holeCount":18,"latitude":39.713065,"longitude":-75.995519,"courseId":"3-creeks"},{"name":"4 Wings","locationName":"Cold Lake, AB","holeCount":9,"latitude":54.423786,"longitude":-110.283821,"courseId":"4-wings"},{"name":"50 Acre Park","locationName":"Evergreen Park, IL","holeCount":18,"latitude":41.728238,"longitude":-87.69019,"courseId":"50-acre-park"},{"name":"501 Disc Golf","locationName":"Warren, MA","holeCount":18,"latitude":42.226462,"longitude":-72.187768,"courseId":"501-disc-golf"},{"name":"6 Bears and a Goat","locationName":"Fredericksburg, VA","holeCount":9,"latitude":38.362694,"longitude":-77.513745,"courseId":"6-bears-and-a-goat"},{"name":"65th Infantry Veterans","locationName":"Kissimmee, FL","holeCount":18,"latitude":28.325868,"longitude":-81.348208,"courseId":"65th-infantry-veterans"},{"name":"7 Acre Park Disc Golf","locationName":"Flatonia, TX","holeCount":6,"latitude":29.68899,"longitude":-97.09708,"courseId":"7-acre-park-disc-golf"},{"name":"7 Giralda","locationName":"Madison, NJ","holeCount":9,"latitude":40.760578,"longitude":-74.442769,"courseId":"7-giralda"},{"name":"9 on Top","locationName":"Walden, TN","holeCount":9,"latitude":35.153648,"longitude":-85.318639,"courseId":"9-on-top"},{"name":"9 Springs Golf & Disc Course","locationName":"Fitchburg, WI","holeCount":18,"latitude":43.025158,"longitude":-89.418416,"courseId":"9-springs-golf-disc-course"},{"name":"A Hint Of… Disc Golf","locationName":"Litchfield, MI","holeCount":18,"latitude":42.053233,"longitude":-84.778025,"courseId":"a-hint-of-disc-golf"},{"name":"A. J. Jolly Park","locationName":"Alexandria, KY","holeCount":18,"latitude":38.888176,"longitude":-84.365707,"courseId":"a-j-jolly-park"},{"name":"A. V. Anderson Park","locationName":"Sierra Vista, AZ","holeCount":18,"latitude":31.540939,"longitude":-110.291013,"courseId":"a-v-anderson-park"},{"name":"A6 Discgolfpark","locationName":"Jönköping, Jönköpings län","holeCount":18,"latitude":57.771199,"longitude":14.208348,"courseId":"a6-discgolfpark"},{"name":"Aa-gård Lavangen","locationName":"Tennevoll, Norway","holeCount":18,"latitude":68.783605,"longitude":17.784061,"courseId":"aagrd-lavangen"},{"name":"Aakonvuoren","locationName":"Haapavesi, Finland","holeCount":18,"latitude":64.1752,"longitude":25.5045,"courseId":"aakonvuoren"},{"name":"Aant'iyeik Park","locationName":"Juneau, AK","holeCount":18,"latitude":58.38269,"longitude":-134.735672,"courseId":"aantiyeik-park"},{"name":"ABC","locationName":"Eunice, LA","holeCount":18,"latitude":30.429689,"longitude":-92.31974,"courseId":"abc"},{"name":"Abendschein Park","locationName":"Oak Creek, WI","holeCount":18,"latitude":42.898965,"longitude":-87.89777,"courseId":"abendschein-park"},{"name":"Aberford Park","locationName":"Borehamwood, United Kingdom","holeCount":6,"latitude":51.662614,"longitude":-0.276161,"courseId":"aberford-park"},{"name":"Abja-Paluoja","locationName":"Abja-Paluoja, Estonia","holeCount":11,"latitude":58.125735,"longitude":25.367779,"courseId":"abjapaluoja"},{"name":"Abrams Park","locationName":"Ridgefield, WA","holeCount":9,"latitude":45.818706,"longitude":-122.738667,"courseId":"abrams-park"},{"name":"Acadia Disc Golf @ Hapana","locationName":"Trenton, ME","holeCount":18,"latitude":44.462991,"longitude":-68.364012,"courseId":"acadia-disc-golf-hapana"},{"name":"Acadiana Park - Ace Run","locationName":"Lafayette, LA","holeCount":18,"latitude":30.2545,"longitude":-91.9876,"courseId":"acadiana-park-ace-run"},{"name":"Acadiana Park - Duzee","locationName":"Lafayette, LA","holeCount":18,"latitude":30.2557,"longitude":-91.9862,"courseId":"acadiana-park-duzee"},{"name":"Acampamento Novo Caminhar","locationName":"Juncal, MG","holeCount":8,"latitude":-22.739128,"longitude":-46.267415,"courseId":"acampamento-novo-caminhar"},{"name":"Acasia Disc Golf","locationName":"Kampala, Uganda","holeCount":9,"latitude":0.206819,"longitude":32.602932,"courseId":"acasia-disc-golf"},{"name":"Ace Adventures","locationName":"Forres, United Kingdom","holeCount":27,"latitude":57.51294,"longitude":-3.694087,"courseId":"ace-adventures"},{"name":"Ace Run","locationName":"Manteo, NC","holeCount":9,"latitude":35.928516,"longitude":-75.719202,"courseId":"ace-run"},{"name":"Ace Run Ranch","locationName":"Suffolk, VA","holeCount":18,"latitude":36.64,"longitude":-76.65,"courseId":"ace-run-ranch"},{"name":"Ace Shores","locationName":"Boston, MA","holeCount":9,"latitude":42.319769,"longitude":-71.04094,"courseId":"ace-shores"},{"name":"Aceplace","locationName":"Tulsa, OK","holeCount":9,"latitude":36.085863,"longitude":-96.004787,"courseId":"aceplace"},{"name":"Ace's Downtown Mini","locationName":"Oklahoma City, OK","holeCount":5,"latitude":35.47799,"longitude":-97.5111,"courseId":"aces-downtown-mini"},{"name":"Achenbach Memorial Park","locationName":"Hardtner, KS","holeCount":9,"latitude":37.019006,"longitude":-98.649949,"courseId":"achenbach-memorial-park"},{"name":"Acker's Acres - The Twisted","locationName":"Bowdoinham, ME","holeCount":18,"latitude":44.089866,"longitude":-69.88384,"courseId":"ackers-acres-the-twisted"},{"name":"Acker's Acres - The Wicked","locationName":"Bowdoinham, ME","holeCount":18,"latitude":44.089866,"longitude":-69.88384,"courseId":"ackers-acres-the-wicked"},{"name":"Ackers Adventure","locationName":"Birmingham, United Kingdom","holeCount":9,"latitude":52.458803,"longitude":-1.854944,"courseId":"ackers-adventure"},{"name":"Acme Brick Park","locationName":"Clinton, OK","holeCount":18,"latitude":35.50557,"longitude":-98.99622,"courseId":"acme-brick-park"},{"name":"Acorn","locationName":"Roseville, MN","holeCount":18,"latitude":45.019867,"longitude":-93.111031,"courseId":"acorn"},{"name":"Acorn Hill","locationName":"Raleigh, NC","holeCount":18,"latitude":35.817162,"longitude":-78.523134,"courseId":"acorn-hill"},{"name":"Acorn Hills Disc Golf Center","locationName":"Manistee, MI","holeCount":18,"latitude":44.195125,"longitude":-86.284624,"courseId":"acorn-hills-disc-golf-center"},{"name":"Active Heroes","locationName":"Shepherdsville, KY","holeCount":19,"latitude":37.980525,"longitude":-85.586994,"courseId":"active-heroes"},{"name":"Ada","locationName":"Ada, OK","holeCount":9,"latitude":34.763979,"longitude":-96.652359,"courseId":"ada"},{"name":"Adair Park","locationName":"Adair Village, OR","holeCount":18,"latitude":44.6731,"longitude":-123.212151,"courseId":"adair-park"},{"name":"Adams Hollow","locationName":"Brighton, CO","holeCount":18,"latitude":39.930745,"longitude":-104.87016,"courseId":"adams-hollow"},{"name":"Adams Lake","locationName":"West Union, OH","holeCount":9,"latitude":38.813273,"longitude":-83.521525,"courseId":"adams-lake"},{"name":"Adams-Friendship High School","locationName":"Adams, WI","holeCount":18,"latitude":43.966133,"longitude":-89.801517,"courseId":"adamsfriendship-high-school"},{"name":"Addison Oaks County Park","locationName":"Leonard, MI","holeCount":24,"latitude":42.804117,"longitude":-83.164567,"courseId":"addison-oaks-county-park"},{"name":"Adelaide Park","locationName":"Fond du Lac, WI","holeCount":18,"latitude":43.788194,"longitude":-88.463228,"courseId":"adelaide-park"},{"name":"Adler Park","locationName":"Libertyville, IL","holeCount":9,"latitude":42.302938,"longitude":-87.954867,"courseId":"adler-park"},{"name":"Admiral Farragut Park","locationName":"Knoxville, TN","holeCount":9,"latitude":35.853227,"longitude":-84.08787,"courseId":"admiral-farragut-park"},{"name":"Admire","locationName":"Admire, KS","holeCount":9,"latitude":38.643591,"longitude":-96.104989,"courseId":"admire"},{"name":"Adrian","locationName":"Adrian, MN","holeCount":18,"latitude":43.640136,"longitude":-95.935648,"courseId":"adrian"},{"name":"Adventist Alpine Village DiscGolfPark","locationName":"Jindabyne, Australia","holeCount":18,"latitude":-36.432047,"longitude":148.591155,"courseId":"adventist-alpine-village-discgolfpark"},{"name":"Adventure Club Brewing","locationName":"Bayfield, WI","holeCount":9,"latitude":46.801857,"longitude":-90.837152,"courseId":"adventure-club-brewing"},{"name":"Adventure Park","locationName":"Mechanicsburg, PA","holeCount":9,"latitude":40.276158,"longitude":-77.009499,"courseId":"adventure-park"},{"name":"Aegviidu","locationName":"Aegviidu, Estonia","holeCount":9,"latitude":59.287518,"longitude":25.602844,"courseId":"aegviidu"},{"name":"AFCON Ridge","locationName":"Adrian, MI","holeCount":9,"latitude":41.899491,"longitude":-84.070145,"courseId":"afcon-ridge"},{"name":"Aflac","locationName":"Columbus, GA","holeCount":9,"latitude":32.500672,"longitude":-84.877809,"courseId":"aflac"},{"name":"Agape","locationName":"Scottsboro, AL","holeCount":9,"latitude":34.62281,"longitude":-86.080061,"courseId":"agape"},{"name":"Agape Farm Championship","locationName":"Shirleysburg, PA","holeCount":18,"latitude":40.281068,"longitude":-77.921251,"courseId":"agape-farm-championship"},{"name":"Agape Farm Micro Course","locationName":"Shirleysburg, PA","holeCount":9,"latitude":40.281275,"longitude":-77.922064,"courseId":"agape-farm-micro-course"},{"name":"Aggie Greens","locationName":"Fort Collins, CO","holeCount":18,"latitude":40.556408,"longitude":-105.138278,"courseId":"aggie-greens"},{"name":"Aggieland","locationName":"Hamilton, AL","holeCount":18,"latitude":34.133698,"longitude":-88.000799,"courseId":"aggieland"},{"name":"Agnes Moffitt Park","locationName":"Houston, TX","holeCount":21,"latitude":29.812181,"longitude":-95.561346,"courseId":"agnes-moffitt-park"},{"name":"Agra Lake","locationName":"Agra, KS","holeCount":18,"latitude":39.760887,"longitude":-99.128304,"courseId":"agra-lake"},{"name":"Ahlainen DiscGolfPark","locationName":"Pori, Finland","holeCount":9,"latitude":61.6784,"longitude":21.6102,"courseId":"ahlainen-discgolfpark"},{"name":"Ahmo DiscGolfPark","locationName":"Siilinjärvi, Finland","holeCount":12,"latitude":63.079136,"longitude":27.6563,"courseId":"ahmo-discgolfpark"},{"name":"Aholahden Frisbeegolfrata","locationName":"Savonlinna, Finland","holeCount":18,"latitude":61.877335,"longitude":28.740621,"courseId":"aholahden-frisbeegolfrata"},{"name":"Ahoskie Creek","locationName":"Ahoskie, NC","holeCount":20,"latitude":36.287102,"longitude":-76.999784,"courseId":"ahoskie-creek"},{"name":"Ahrensburg","locationName":"Ahrensburg, Germany","holeCount":11,"latitude":53.677135,"longitude":10.243745,"courseId":"ahrensburg"},{"name":"Ahtela","locationName":"Sauvo, Finland","holeCount":9,"latitude":60.343047,"longitude":22.696413,"courseId":"ahtela"},{"name":"Aileen Cole Stewart Memorial","locationName":"Chillicothe, OH","holeCount":20,"latitude":39.380983,"longitude":-83.014292,"courseId":"aileen-cole-stewart-memorial"},{"name":"airBaltic Disc Golf Park","locationName":"Riga, Latvia","holeCount":19,"latitude":57.006518,"longitude":24.148874,"courseId":"airbaltic-disc-golf-park"},{"name":"Airborn Disc Golf - Black Bear","locationName":"Clearwater, MN","holeCount":18,"latitude":45.408734,"longitude":-94.036882,"courseId":"airborn-disc-golf-black-bear"},{"name":"Airborn Disc Golf Hollows","locationName":"Oak Grove, MN","holeCount":18,"latitude":45.356907,"longitude":-93.28899,"courseId":"airborn-disc-golf-hollows"},{"name":"Airborn Disc Golf - Lynx","locationName":"Clearwater, MN","holeCount":18,"latitude":45.408734,"longitude":-94.036882,"courseId":"airborn-disc-golf-lynx"},{"name":"Airborn Disc Golf - Red Fox","locationName":"Clearwater, MN","holeCount":18,"latitude":45.409222,"longitude":-94.036041,"courseId":"airborn-disc-golf-red-fox"},{"name":"Airborn Disc Golf - Timberwolf","locationName":"Clearwater, MN","holeCount":18,"latitude":45.409544,"longitude":-94.035139,"courseId":"airborn-disc-golf-timberwolf"},{"name":"Aire de Loisirs La Gazonne","locationName":"Sauveterre-de-Rouergue, France","holeCount":18,"latitude":44.220919,"longitude":2.327578,"courseId":"aire-de-loisirs-la-gazonne"},{"name":"AirPark Columbus","locationName":"Columbus, IN","holeCount":9,"latitude":39.254799,"longitude":-85.897091,"courseId":"airpark-columbus"},{"name":"Airpark Field","locationName":"Eldon, MO","holeCount":18,"latitude":38.356221,"longitude":-92.57462,"courseId":"airpark-field"},{"name":"Airport Lakes Park","locationName":"Orlando, FL","holeCount":9,"latitude":28.460179,"longitude":-81.315747,"courseId":"airport-lakes-park"},{"name":"Airport Park","locationName":"Clarksville, TN","holeCount":9,"latitude":36.627282,"longitude":-87.420788,"courseId":"airport-park-clarksville-tn"},{"name":"Airport Park","locationName":"Concordia, KS","holeCount":18,"latitude":39.549639,"longitude":-97.655802,"courseId":"airport-park-concordia-ks"},{"name":"Airport Park","locationName":"Shreveport, LA","holeCount":9,"latitude":32.448917,"longitude":-93.81058,"courseId":"airport-park-shreveport-la"},{"name":"Aitkin City Park","locationName":"Aitkin, MN","holeCount":9,"latitude":46.529668,"longitude":-93.710235,"courseId":"aitkin-city-park"},{"name":"Akerby","locationName":"Nora, Sweden","holeCount":9,"latitude":59.583236,"longitude":14.971156,"courseId":"akerby"},{"name":"Akron","locationName":"Akron, CO","holeCount":11,"latitude":40.138693,"longitude":-103.21536,"courseId":"akron"},{"name":"Aktivpark Phoenix","locationName":"Beckum, Germany","holeCount":18,"latitude":51.763524,"longitude":8.060188,"courseId":"aktivpark-phoenix"},{"name":"Akustinpuisto DiscGolfPark","locationName":"Somero, Finland","holeCount":6,"latitude":60.6231,"longitude":23.5154,"courseId":"akustinpuisto-discgolfpark"},{"name":"A.L. Kinsaul Park","locationName":"Lynn Haven, FL","holeCount":9,"latitude":30.250724,"longitude":-85.660686,"courseId":"al-kinsaul-park"},{"name":"Al Quaal Recreation Area","locationName":"Ishpeming, MI","holeCount":18,"latitude":46.512171,"longitude":-87.656453,"courseId":"al-quaal-recreation-area"},{"name":"Al Udeid","locationName":"Al Udeid, Qatar","holeCount":9,"latitude":25.115539,"longitude":51.34423,"courseId":"al-udeid"},{"name":"Ala","locationName":"Ala, Estonia","holeCount":9,"latitude":58.012002,"longitude":25.687653,"courseId":"ala"},{"name":"Alabama Mountain Games","locationName":"Cleveland, AL","holeCount":18,"latitude":33.942879,"longitude":-86.653998,"courseId":"alabama-mountain-games"},{"name":"ALAG","locationName":"Henderson, KY","holeCount":6,"latitude":37.783965,"longitude":-87.615698,"courseId":"alag"},{"name":"Alamance Reserve","locationName":"Burlington, NC","holeCount":9,"latitude":36.065241,"longitude":-79.509768,"courseId":"alamance-reserve"},{"name":"Alameda Church Of Christ","locationName":"Norman, OK","holeCount":6,"latitude":35.219314,"longitude":-97.430832,"courseId":"alameda-church-of-christ"},{"name":"Alamosa","locationName":"Alamosa, CO","holeCount":27,"latitude":37.491068,"longitude":-105.878742,"courseId":"alamosa"},{"name":"Alan John Memorial","locationName":"Mulvane, KS","holeCount":9,"latitude":37.48247,"longitude":-97.235656,"courseId":"alan-john-memorial"},{"name":"Alastaron DGP","locationName":"Loimaa, Finland","holeCount":10,"latitude":60.9559,"longitude":22.8569,"courseId":"alastaron-dgp"},{"name":"Alatskivi","locationName":"Alatskivi, Estonia","holeCount":10,"latitude":58.604054,"longitude":27.129972,"courseId":"alatskivi"},{"name":"Alavetelin frisbeegolfrata","locationName":"Alaveteli, Finland","holeCount":9,"latitude":63.6992,"longitude":23.3496,"courseId":"alavetelin-frisbeegolfrata"},{"name":"Alba","locationName":"Alba, MO","holeCount":9,"latitude":37.236052,"longitude":-94.421776,"courseId":"alba"},{"name":"Albert Oakland Park - Lower","locationName":"Columbia, MO","holeCount":18,"latitude":38.98378,"longitude":-92.30688,"courseId":"albert-oakland-park-lower"},{"name":"Alberton Town Park","locationName":"Alberton, MT","holeCount":9,"latitude":47.002476,"longitude":-114.476588,"courseId":"alberton-town-park"},{"name":"Albia City Park","locationName":"Albia, IA","holeCount":9,"latitude":41.0375,"longitude":-92.802778,"courseId":"albia-city-park"},{"name":"Albion","locationName":"Albion, PA","holeCount":9,"latitude":41.894207,"longitude":-80.367475,"courseId":"albion"},{"name":"Albion Albatross","locationName":"Caledon, ON","holeCount":18,"latitude":43.928314,"longitude":-79.829407,"courseId":"albion-albatross"},{"name":"Albion Birdie","locationName":"Kleinburg Station, ON","holeCount":9,"latitude":43.926378,"longitude":-79.82899,"courseId":"albion-birdie"},{"name":"Alburnett","locationName":"Alburnett, IA","holeCount":9,"latitude":42.139,"longitude":-91.619,"courseId":"alburnett"},{"name":"Alby","locationName":"Stockholm, Tyresö, Sweden","holeCount":18,"latitude":59.229316,"longitude":18.274183,"courseId":"alby"},{"name":"Alcantra - Big Su","locationName":"Wasilla, AK","holeCount":18,"latitude":61.613992,"longitude":-149.3829,"courseId":"alcantra-big-su"},{"name":"Alcantra - Little Su","locationName":"Wasilla, AK","holeCount":9,"latitude":61.613992,"longitude":-149.3829,"courseId":"alcantra-little-su"},{"name":"Alcyon Woods","locationName":"Pitman, NJ","holeCount":18,"latitude":39.73242,"longitude":-75.145491,"courseId":"alcyon-woods"},{"name":"Alderson Town Park","locationName":"Alderson, WV","holeCount":9,"latitude":37.733152,"longitude":-80.642948,"courseId":"alderson-town-park"},{"name":"Ale Disc Golf Center - Blue","locationName":"Nol, Sweden","holeCount":9,"latitude":57.891368,"longitude":12.116265,"courseId":"ale-disc-golf-center-blue"},{"name":"Ale Disc Golf Center - White","locationName":"Nol, Sweden","holeCount":18,"latitude":57.891368,"longitude":12.116265,"courseId":"ale-disc-golf-center-white"},{"name":"Ale Disc Golf Center - Yellow","locationName":"Nol, Sweden","holeCount":18,"latitude":57.891368,"longitude":12.116265,"courseId":"ale-disc-golf-center-yellow"},{"name":"Alex Clark Memorial","locationName":"McKinney, TX","holeCount":23,"latitude":33.187435,"longitude":-96.645515,"courseId":"alex-clark-memorial"},{"name":"Alexander Clark Park","locationName":"Loganholme, Australia","holeCount":9,"latitude":-27.701031,"longitude":153.191994,"courseId":"alexander-clark-park"},{"name":"Alexander H.S.","locationName":"Albany, OH","holeCount":9,"latitude":39.241733,"longitude":-82.185372,"courseId":"alexander-hs"},{"name":"Alexander Middle School","locationName":"Nekoosa, WI","holeCount":18,"latitude":44.30858,"longitude":-89.915242,"courseId":"alexander-middle-school"},{"name":"Alexander Park","locationName":"Lawrenceville, GA","holeCount":18,"latitude":33.915083,"longitude":-84.007462,"courseId":"alexander-park"},{"name":"Alexandria Park","locationName":"Alexandria, KY","holeCount":9,"latitude":38.961352,"longitude":-84.368821,"courseId":"alexandria-park"},{"name":"Alexandria Township Park","locationName":"Milford, NJ","holeCount":18,"latitude":40.59,"longitude":-75.0527,"courseId":"alexandria-township-park"},{"name":"Alfred Cox Park","locationName":"Gisborne, New Zealand","holeCount":18,"latitude":-38.667405,"longitude":178.020178,"courseId":"alfred-cox-park"},{"name":"Algonquin Disc Golf","locationName":"South River, ON","holeCount":18,"latitude":45.918945,"longitude":-79.18705,"courseId":"algonquin-disc-golf"},{"name":"Alight","locationName":"Laramie, WY","holeCount":6,"latitude":41.312945,"longitude":-105.548091,"courseId":"alight"},{"name":"Alimagnet Lake Park","locationName":"Apple Valley, MN","holeCount":12,"latitude":44.739929,"longitude":-93.245178,"courseId":"alimagnet-lake-park"},{"name":"All Aboard Disc Golf","locationName":"Enfield, ME","holeCount":18,"latitude":45.248153,"longitude":-68.589787,"courseId":"all-aboard-disc-golf"},{"name":"Allaire State Park","locationName":"Wall Township, NJ","holeCount":18,"latitude":40.162343,"longitude":-74.131737,"courseId":"allaire-state-park"},{"name":"Allegan Jaycee Park","locationName":"Allegan, MI","holeCount":9,"latitude":42.531087,"longitude":-85.85113,"courseId":"allegan-jaycee-park"},{"name":"Allen Howell","locationName":"Ephraim, UT","holeCount":9,"latitude":39.350617,"longitude":-111.57005,"courseId":"allen-howell"},{"name":"Allen Park","locationName":"Oneida, NY","holeCount":9,"latitude":43.08205,"longitude":-75.64593,"courseId":"allen-park"},{"name":"Allen Street Campus","locationName":"Rutland, VT","holeCount":9,"latitude":43.599395,"longitude":-72.958214,"courseId":"allen-street-campus"},{"name":"Allen Tree Farm","locationName":"Westfield, MA","holeCount":18,"latitude":42.18669,"longitude":-72.775865,"courseId":"allen-tree-farm"},{"name":"Allerpark","locationName":"Wolfsburg, Germany","holeCount":18,"latitude":52.434953,"longitude":10.81599,"courseId":"allerpark"},{"name":"Alley Park","locationName":"Bel Aire, KS","holeCount":9,"latitude":37.77406,"longitude":-97.27768,"courseId":"alley-park"},{"name":"Allgäu","locationName":"Ofterschwang/Gunzesried, Germany","holeCount":18,"latitude":47.505943,"longitude":10.222473,"courseId":"allgu"},{"name":"Alligator Lake","locationName":"Ft. Johnson , LA","holeCount":9,"latitude":31.142695,"longitude":-93.154972,"courseId":"alligator-lake-ft-johnson-la"},{"name":"Alligator Lake","locationName":"Lake City, FL","holeCount":9,"latitude":30.167121,"longitude":-82.615385,"courseId":"alligator-lake-lake-city-fl"},{"name":"Allison Chains","locationName":"Sleepy Eye, MN","holeCount":9,"latitude":44.301026,"longitude":-94.728071,"courseId":"allison-chains"},{"name":"Alma","locationName":"Alma, CO","holeCount":11,"latitude":39.2846,"longitude":-106.062,"courseId":"alma"},{"name":"Alma Flying Disc Course","locationName":"Alma, AR","holeCount":18,"latitude":35.495198,"longitude":-94.221324,"courseId":"alma-flying-disc-course"},{"name":"Alma Walking Trail","locationName":"Alma, NE","holeCount":12,"latitude":40.096287,"longitude":-99.370546,"courseId":"alma-walking-trail"},{"name":"Almena City Park","locationName":"Almena, KS","holeCount":18,"latitude":39.895983,"longitude":-99.701126,"courseId":"almena-city-park"},{"name":"Almendros","locationName":"Vieques, PR","holeCount":18,"latitude":18.125101,"longitude":-65.523575,"courseId":"almendros"},{"name":"Almira Township Park","locationName":"Lake Ann, MI","holeCount":18,"latitude":44.735893,"longitude":-85.879641,"courseId":"almira-township-park"},{"name":"Almon Park","locationName":"Rhinelander, WI","holeCount":18,"latitude":45.593433,"longitude":-89.408144,"courseId":"almon-park"},{"name":"Alpha","locationName":"Alpha, MI","holeCount":9,"latitude":46.046836,"longitude":-88.377142,"courseId":"alpha"},{"name":"Alpha Park","locationName":"Bartonville, IL","holeCount":9,"latitude":40.647,"longitude":-89.678,"courseId":"alpha-park"},{"name":"Alpine","locationName":"Alpine, TX","holeCount":9,"latitude":30.36171,"longitude":-103.649013,"courseId":"alpine-alpine-tx"},{"name":"Alpine Disc Golf Bach","locationName":"Bach, Tirol","holeCount":18,"latitude":47.268083,"longitude":10.384041,"courseId":"alpine-disc-golf-bach"},{"name":"Alpine Lakeside","locationName":"Alpine, WY","holeCount":9,"latitude":43.165541,"longitude":-111.037702,"courseId":"alpine-lakeside"},{"name":"Alpine Park","locationName":"Canton, OH","holeCount":2,"latitude":40.876024,"longitude":-81.324175,"courseId":"alpine-park"},{"name":"Alsip","locationName":"Alsip, IL","holeCount":7,"latitude":41.675224,"longitude":-87.729961,"courseId":"alsip"},{"name":"Alsterdorf","locationName":"Hamburg, Germany","holeCount":6,"latitude":53.613419,"longitude":10.026821,"courseId":"alsterdorf"},{"name":"Alta Vista Disc Golf Ranch","locationName":"Victor, CO","holeCount":18,"latitude":38.664888,"longitude":-105.115231,"courseId":"alta-vista-disc-golf-ranch"},{"name":"Altenkirchen","locationName":"Altenkirchen, Germany","holeCount":9,"latitude":50.690205,"longitude":7.645749,"courseId":"altenkirchen"},{"name":"Altitude","locationName":"Aurora, CO","holeCount":9,"latitude":39.581166,"longitude":-104.670225,"courseId":"altitude"},{"name":"Altona Centennial Park","locationName":"Altona, MB","holeCount":9,"latitude":49.110034,"longitude":-97.568524,"courseId":"altona-centennial-park"},{"name":"Altstadt Acres","locationName":"Huntingburg, IN","holeCount":18,"latitude":38.285133,"longitude":-86.953819,"courseId":"altstadt-acres"},{"name":"Alumni Park","locationName":"Malibu, CA","holeCount":9,"latitude":34.038151,"longitude":-118.704674,"courseId":"alumni-park-malibu-ca"},{"name":"Alumni Park","locationName":"Weston, OH","holeCount":9,"latitude":41.345006,"longitude":-83.787929,"courseId":"alumni-park-weston-oh"},{"name":"Alutaguse","locationName":"Vasavere, Estonia","holeCount":18,"latitude":59.291494,"longitude":27.560163,"courseId":"alutaguse"},{"name":"Alverno Township","locationName":"Cheboygan, MI","holeCount":9,"latitude":45.557748,"longitude":-84.389952,"courseId":"alverno-township"},{"name":"Alvord City Park","locationName":"Alvord, IA","holeCount":9,"latitude":43.342357,"longitude":-96.299619,"courseId":"alvord-city-park"},{"name":"Alvord Park","locationName":"Torrington, CT","holeCount":18,"latitude":41.829672,"longitude":-73.100862,"courseId":"alvord-park"},{"name":"Amana","locationName":"Amana, IA","holeCount":18,"latitude":41.797389,"longitude":-91.864724,"courseId":"amana"},{"name":"Amanda's Field ","locationName":"Woodbine, NJ","holeCount":18,"latitude":39.257925,"longitude":-74.739633,"courseId":"amandas-field-"},{"name":"Amberly Elementary School","locationName":"Portage, MI","holeCount":9,"latitude":42.219471,"longitude":-85.622641,"courseId":"amberly-elementary-school"},{"name":"Ambrose A. Call Park","locationName":"Algona, IA","holeCount":18,"latitude":43.054347,"longitude":-94.24245,"courseId":"ambrose-a-call-park"},{"name":"Amelia Earhart Park","locationName":"Hialeah, FL","holeCount":18,"latitude":25.882315,"longitude":-80.283454,"courseId":"amelia-earhart-park"},{"name":"American Falls","locationName":"American Falls, ID","holeCount":9,"latitude":42.77679,"longitude":-112.85361,"courseId":"american-falls"},{"name":"American Legion","locationName":"Mountain Top, PA","holeCount":18,"latitude":41.127,"longitude":-75.952,"courseId":"american-legion"},{"name":"American Legion Park","locationName":"Brainerd, MN","holeCount":9,"latitude":46.445782,"longitude":-94.202823,"courseId":"american-legion-park-brainerd-mn"},{"name":"American Legion Park","locationName":"Glasgow, KY","holeCount":9,"latitude":37.007568,"longitude":-85.924088,"courseId":"american-legion-park-glasgow-ky"},{"name":"Ames Park","locationName":"Mead, CO","holeCount":9,"latitude":40.234361,"longitude":-104.995088,"courseId":"ames-park"},{"name":"Amesbury Pines","locationName":"Amesbury, MA","holeCount":18,"latitude":42.852471,"longitude":-70.940963,"courseId":"amesbury-pines"},{"name":"Amhurst HOA","locationName":"San Antonio, TX","holeCount":9,"latitude":29.430743,"longitude":-98.724548,"courseId":"amhurst-hoa"},{"name":"Amigo Centre","locationName":"Sturgis, MI","holeCount":9,"latitude":41.86861,"longitude":-85.44044,"courseId":"amigo-centre"},{"name":"Amigo Park","locationName":"Cleburne, TX","holeCount":18,"latitude":32.327104,"longitude":-97.435255,"courseId":"amigo-park"},{"name":"Ammon Fields","locationName":"Ammon, ID","holeCount":9,"latitude":43.495554,"longitude":-111.971927,"courseId":"ammon-fields"},{"name":"Amospuiston frisbeegolfrata","locationName":"Kemiönsaari , Finland","holeCount":9,"latitude":60.173452,"longitude":22.729855,"courseId":"amospuiston-frisbeegolfrata"},{"name":"Amrock","locationName":"Moon Township, PA","holeCount":6,"latitude":40.530241,"longitude":-80.246135,"courseId":"amrock"},{"name":"AmShank","locationName":"Amelia, OH","holeCount":9,"latitude":39.016373,"longitude":-84.228091,"courseId":"amshank"},{"name":"Amundson Park","locationName":"Sparta, WI","holeCount":18,"latitude":43.9306,"longitude":-90.84269,"courseId":"amundson-park"},{"name":"Amy Lynch Memorial","locationName":"Buena Vista, CO","holeCount":18,"latitude":38.846895,"longitude":-106.124293,"courseId":"amy-lynch-memorial"},{"name":"Ancient Oaks Disc Golf","locationName":"Thomaston, ME","holeCount":10,"latitude":44.082492,"longitude":-69.202895,"courseId":"ancient-oaks-disc-golf"},{"name":"Andersen AFB Latte Stone","locationName":"Yigo, Guam","holeCount":9,"latitude":13.562835,"longitude":144.916449,"courseId":"andersen-afb-latte-stone"},{"name":"Anderson County Community","locationName":"Lawrenceburg, KY","holeCount":9,"latitude":38.039777,"longitude":-84.911013,"courseId":"anderson-county-community"},{"name":"Anderson Creek","locationName":"Lillington, NC","holeCount":18,"latitude":35.31883,"longitude":-78.965022,"courseId":"anderson-creek"},{"name":"Anderson Park","locationName":"Carrboro, NC","holeCount":18,"latitude":35.921673,"longitude":-79.105296,"courseId":"anderson-park"},{"name":"Anderson River Park","locationName":"Anderson, CA","holeCount":18,"latitude":40.46586,"longitude":-122.27284,"courseId":"anderson-river-park"},{"name":"Anderson University","locationName":"Anderson, SC","holeCount":10,"latitude":34.5131,"longitude":-82.6288,"courseId":"anderson-university"},{"name":"Anderson Valley Brewing Company","locationName":"Boonville, CA","holeCount":18,"latitude":39.000747,"longitude":-123.35653,"courseId":"anderson-valley-brewing-company"},{"name":"Anderson-Dean Community Park","locationName":"Harrodsburg, KY","holeCount":18,"latitude":37.798154,"longitude":-84.847219,"courseId":"andersondean-community-park"},{"name":"Andersons Homestead","locationName":"Dryden, ON","holeCount":18,"latitude":49.799966,"longitude":-92.875592,"courseId":"andersons-homestead"},{"name":"Andes Tower Hills","locationName":"Kensington, MN","holeCount":9,"latitude":45.850983,"longitude":-95.630536,"courseId":"andes-tower-hills"},{"name":"Andorra Bend","locationName":"Porter, TX","holeCount":5,"latitude":30.095192,"longitude":-95.189249,"courseId":"andorra-bend"},{"name":"Andover Central Park","locationName":"Andover, KS","holeCount":18,"latitude":37.69004,"longitude":-97.120692,"courseId":"andover-central-park"},{"name":"Andrew Brown Park","locationName":"Coppell, TX","holeCount":18,"latitude":32.982285,"longitude":-96.979387,"courseId":"andrew-brown-park"},{"name":"Andrew Mountain Park","locationName":"Naugatuck, CT","holeCount":10,"latitude":41.485081,"longitude":-73.078952,"courseId":"andrew-mountain-park"},{"name":"Andrews University","locationName":"Berrien Springs, MI","holeCount":18,"latitude":41.964732,"longitude":-86.355908,"courseId":"andrews-university"},{"name":"Andy Sage","locationName":"Paoli, IN","holeCount":9,"latitude":38.562797,"longitude":-86.494891,"courseId":"andy-sage"},{"name":"Angel Fire Resort - Lower 4","locationName":"Angel Fire, NM","holeCount":4,"latitude":36.391637,"longitude":-105.283626,"courseId":"angel-fire-resort-lower-4"},{"name":"Angel Fire Resort - Main","locationName":"Angel Fire, NM","holeCount":18,"latitude":36.390473,"longitude":-105.280738,"courseId":"angel-fire-resort-main"},{"name":"Angel Mounds","locationName":"Evansville, IN","holeCount":18,"latitude":37.946299,"longitude":-87.451016,"courseId":"angel-mounds"},{"name":"Angelica Park","locationName":"Reading, PA","holeCount":9,"latitude":40.310438,"longitude":-75.924462,"courseId":"angelica-park"},{"name":"Angelo State University","locationName":"San Angelo, TX","holeCount":9,"latitude":31.439201,"longitude":-100.458866,"courseId":"angelo-state-university"},{"name":"Angelus Oaks Lodge","locationName":"Angelus Oaks, CA","holeCount":9,"latitude":34.150345,"longitude":-116.975647,"courseId":"angelus-oaks-lodge"},{"name":"Angeredsbanan","locationName":"Angered, Sweden","holeCount":18,"latitude":57.797222,"longitude":12.051111,"courseId":"angeredsbanan"},{"name":"Angostura","locationName":"Hot Springs, SD","holeCount":9,"latitude":43.338796,"longitude":-103.426312,"courseId":"angostura"},{"name":"Angry Apple","locationName":"Darien Center, NY","holeCount":18,"latitude":42.903209,"longitude":-78.432909,"courseId":"angry-apple"},{"name":"Angry Lobster","locationName":"Fairfield, ME","holeCount":18,"latitude":44.592617,"longitude":-69.697152,"courseId":"angry-lobster"},{"name":"Ankerskogen","locationName":"Ankerskogen, Hamar, Norway","holeCount":18,"latitude":60.80488,"longitude":11.06541,"courseId":"ankerskogen"},{"name":"Ankkapurha DGP","locationName":"Kouvola, Finland","holeCount":9,"latitude":60.6972,"longitude":26.8121,"courseId":"ankkapurha-dgp"},{"name":"Ann Dever Park","locationName":"Englewood, FL","holeCount":18,"latitude":26.922349,"longitude":-82.313705,"courseId":"ann-dever-park"},{"name":"Ann Morrison Park","locationName":"Boise, ID","holeCount":18,"latitude":43.611984,"longitude":-116.219269,"courseId":"ann-morrison-park"},{"name":"Anna City Park","locationName":"Anna, IL","holeCount":18,"latitude":37.456034,"longitude":-89.246513,"courseId":"anna-city-park"},{"name":"Anna Page Park - East","locationName":"Rockford, IL","holeCount":18,"latitude":42.305733,"longitude":-89.14805,"courseId":"anna-page-park-east"},{"name":"Anna Page Park - South","locationName":"Rockford, IL","holeCount":18,"latitude":42.305733,"longitude":-89.14805,"courseId":"anna-page-park-south"},{"name":"Anna Page Park - West","locationName":"Rockford, IL","holeCount":18,"latitude":42.305733,"longitude":-89.14805,"courseId":"anna-page-park-west"},{"name":"Annay Parc des Etangs","locationName":"Annay sous Lens, France","holeCount":9,"latitude":50.46593,"longitude":2.87902,"courseId":"annay-parc-des-etangs"},{"name":"Anne Springs Close Greenway","locationName":"Fort Mill, SC","holeCount":9,"latitude":35.03562,"longitude":-80.916513,"courseId":"anne-springs-close-greenway"},{"name":"Annie Oakley Park","locationName":"Oakley, KS","holeCount":9,"latitude":39.13049,"longitude":-100.84605,"courseId":"annie-oakley-park"},{"name":"Annikoru Discgolf Park","locationName":"Annikoru, Estonia","holeCount":18,"latitude":58.265985,"longitude":26.308999,"courseId":"annikoru-discgolf-park"},{"name":"Ann's Park","locationName":"Marion, KS","holeCount":4,"latitude":38.355655,"longitude":-97.011462,"courseId":"anns-park"},{"name":"Another Man's Treasure","locationName":"Leitchfield, KY","holeCount":18,"latitude":37.469288,"longitude":-86.296601,"courseId":"another-mans-treasure"},{"name":"Ansgarsgården","locationName":"Flen, Sweden","holeCount":6,"latitude":59.079764,"longitude":16.619631,"courseId":"ansgarsgrden"},{"name":"Anson B. Nixon Park","locationName":"Kennett Square, PA","holeCount":18,"latitude":39.8526,"longitude":-75.708298,"courseId":"anson-b-nixon-park"},{"name":"Anthem","locationName":"Henderson, NV","holeCount":9,"latitude":35.974847,"longitude":-115.090414,"courseId":"anthem"},{"name":"Anthony Lake","locationName":"Anthony, KS","holeCount":18,"latitude":37.173996,"longitude":-98.047234,"courseId":"anthony-lake"},{"name":"Antigo High School","locationName":"Antigo, WI","holeCount":9,"latitude":45.132664,"longitude":-89.17521,"courseId":"antigo-high-school"},{"name":"Antioch Silver Lochs","locationName":"Antioch, IL","holeCount":18,"latitude":42.480715,"longitude":-88.08088,"courseId":"antioch-silver-lochs"},{"name":"Antsla Laululava","locationName":"Antsla, Estonia","holeCount":9,"latitude":57.829669,"longitude":26.523519,"courseId":"antsla-laululava"},{"name":"Anttilanrannan Frisbee Golf","locationName":"Alavieska, Finland","holeCount":9,"latitude":64.162,"longitude":24.3056,"courseId":"anttilanrannan-frisbee-golf"},{"name":"Anttilanvuori DiscGolfPark","locationName":"Vesilahti, Finland","holeCount":12,"latitude":61.306,"longitude":23.6104,"courseId":"anttilanvuori-discgolfpark"},{"name":"Aperture Park","locationName":"Lethbridge, AB","holeCount":18,"latitude":49.675156,"longitude":-112.867297,"courseId":"aperture-park"},{"name":"Apex Nature Park","locationName":"Apex, NC","holeCount":18,"latitude":35.717022,"longitude":-78.905216,"courseId":"apex-nature-park"},{"name":"Appanoose Disc Golf","locationName":"Plano, IA","holeCount":9,"latitude":40.855744,"longitude":-93.037225,"courseId":"appanoose-disc-golf"},{"name":"Apple Mountain","locationName":"Clarkesville, GA","holeCount":18,"latitude":34.638213,"longitude":-83.453994,"courseId":"apple-mountain"},{"name":"Apple River Family Campground","locationName":"Somerset, WI","holeCount":9,"latitude":45.131665,"longitude":-92.672428,"courseId":"apple-river-family-campground"},{"name":"Apple Valley High School","locationName":"Apple Valley, MN","holeCount":6,"latitude":44.743659,"longitude":-93.230741,"courseId":"apple-valley-high-school"},{"name":"Apple Valley Park","locationName":"Paonia, CO","holeCount":4,"latitude":38.870886,"longitude":-107.586301,"courseId":"apple-valley-park"},{"name":"Appleby College","locationName":"Oakville, ON","holeCount":18,"latitude":43.42559,"longitude":-79.685566,"courseId":"appleby-college"},{"name":"Appleton","locationName":"Appleton, MN","holeCount":9,"latitude":45.20347,"longitude":-96.017348,"courseId":"appleton"},{"name":"Aptos High School","locationName":"Aptos, CA","holeCount":18,"latitude":36.976047,"longitude":-121.861446,"courseId":"aptos-high-school"},{"name":"APU","locationName":"Anchorage, AK","holeCount":9,"latitude":61.188931,"longitude":-149.804044,"courseId":"apu"},{"name":"Aquatic Park","locationName":"Berkeley, CA","holeCount":18,"latitude":37.8606,"longitude":-122.299797,"courseId":"aquatic-park"},{"name":"AR Rucker Middle School","locationName":"Lancaster, SC","holeCount":9,"latitude":34.718777,"longitude":-80.738496,"courseId":"ar-rucker-middle-school"},{"name":"Ara Damansara Park","locationName":"Petaling Jaya, Selangor","holeCount":18,"latitude":3.118287,"longitude":101.584278,"courseId":"ara-damansara-park"},{"name":"Arab","locationName":"Arab, AL","holeCount":18,"latitude":34.320336,"longitude":-86.480803,"courseId":"arab"},{"name":"Aragon Park","locationName":"St Augustine, FL","holeCount":9,"latitude":29.817807,"longitude":-81.317048,"courseId":"aragon-park"},{"name":"Arakelian Park","locationName":"Livingston, CA","holeCount":5,"latitude":37.377792,"longitude":-120.727569,"courseId":"arakelian-park"},{"name":"Arapahoe Basin","locationName":"Dillon, CO","holeCount":20,"latitude":39.642613,"longitude":-105.872044,"courseId":"arapahoe-basin"},{"name":"Arapahoe Community College","locationName":"Littleton, CO","holeCount":9,"latitude":39.607106,"longitude":-105.020521,"courseId":"arapahoe-community-college"},{"name":"Aravete DiscGolfPark","locationName":"Aravete, Estonia","holeCount":18,"latitude":59.143481,"longitude":25.754704,"courseId":"aravete-discgolfpark"},{"name":"Arboretum de Chamberet","locationName":"Chamberet, France","holeCount":9,"latitude":45.589999,"longitude":1.723097,"courseId":"arboretum-de-chamberet"},{"name":"Arboretum-Spiker - Main","locationName":"Canton, OH","holeCount":21,"latitude":40.83872,"longitude":-81.41025,"courseId":"arboretumspiker-main"},{"name":"Arcadia Lake - Blue Course","locationName":"Edmond, OK","holeCount":18,"latitude":35.640383,"longitude":-97.382866,"courseId":"arcadia-lake-blue-course"},{"name":"Arcadia Lake - Red Course","locationName":"Edmond, OK","holeCount":18,"latitude":35.640383,"longitude":-97.382866,"courseId":"arcadia-lake-red-course"},{"name":"Arcadia Park #2","locationName":"Fort Worth, TX","holeCount":18,"latitude":32.8753,"longitude":-97.2765,"courseId":"arcadia-park-2"},{"name":"Arcadia Valley Sports Complex","locationName":"Ironton, MO","holeCount":9,"latitude":37.590158,"longitude":-90.633286,"courseId":"arcadia-valley-sports-complex"},{"name":"Arcanum-Butler School","locationName":"Arcanum, OH","holeCount":9,"latitude":39.995274,"longitude":-84.5478,"courseId":"arcanumbutler-school"},{"name":"Archer Meadows","locationName":"San Tan Valley, AZ","holeCount":9,"latitude":33.21526,"longitude":-111.52293,"courseId":"archer-meadows"},{"name":"Archer Park","locationName":"Elwood, IL","holeCount":10,"latitude":41.402692,"longitude":-88.118349,"courseId":"archer-park"},{"name":"Archer's Park","locationName":"Lawrence, KS","holeCount":9,"latitude":38.934262,"longitude":-95.36662,"courseId":"archers-park"},{"name":"Arcola","locationName":"Arcola, SK","holeCount":18,"latitude":49.632189,"longitude":-102.491987,"courseId":"arcola"},{"name":"Arcola Heights Park","locationName":"Stillwater, MN","holeCount":9,"latitude":45.093542,"longitude":-92.792212,"courseId":"arcola-heights-park"},{"name":"Arctic Springs","locationName":"Galesville, WI","holeCount":6,"latitude":44.1,"longitude":-91.35,"courseId":"arctic-springs"},{"name":"Are Mõisapargi","locationName":"Niidu, Estonia","holeCount":9,"latitude":58.530359,"longitude":24.58505,"courseId":"are-misapargi"},{"name":"Area 51","locationName":"Axtell, NE","holeCount":9,"latitude":40.485256,"longitude":-99.120803,"courseId":"area-51-axtell-ne"},{"name":"Area 51","locationName":"Obetz, OH","holeCount":18,"latitude":39.869199,"longitude":-82.969455,"courseId":"area-51-obetz-oh"},{"name":"Area Tarolli","locationName":"Albareto (PR), Italy","holeCount":9,"latitude":44.467684,"longitude":9.74107,"courseId":"area-tarolli"},{"name":"Areal 56","locationName":"Bremen, Germany","holeCount":18,"latitude":53.046338,"longitude":8.837639,"courseId":"areal-56"},{"name":"Areford Park","locationName":"Uniontown, PA","holeCount":9,"latitude":39.89431,"longitude":-79.75001,"courseId":"areford-park"},{"name":"Arena","locationName":"Arena, WI","holeCount":9,"latitude":43.168618,"longitude":-89.927676,"courseId":"arena"},{"name":"Arethusa Springs","locationName":"New Lexington, OH","holeCount":18,"latitude":39.707249,"longitude":-82.199079,"courseId":"arethusa-springs"},{"name":"Argo Park","locationName":"Argo, AL","holeCount":9,"latitude":33.689654,"longitude":-86.509588,"courseId":"argo-park"},{"name":"Argonne Disc Golf","locationName":"Lemont, IL","holeCount":3,"latitude":41.708454,"longitude":-87.974745,"courseId":"argonne-disc-golf"},{"name":"Argos Community Park","locationName":"Argos, IN","holeCount":18,"latitude":41.238151,"longitude":-86.256306,"courseId":"argos-community-park"},{"name":"Ariens","locationName":"Auburn, NE","holeCount":9,"latitude":40.389954,"longitude":-95.84823,"courseId":"ariens"},{"name":"Arizona Snowbowl","locationName":"Flagstaff, AZ","holeCount":18,"latitude":35.330652,"longitude":-111.710615,"courseId":"arizona-snowbowl"},{"name":"Arkansas Tech University","locationName":"Ozark, AR","holeCount":9,"latitude":35.498,"longitude":-93.84,"courseId":"arkansas-tech-university"},{"name":"Arkoma Park","locationName":"Arkoma, OK","holeCount":9,"latitude":35.347277,"longitude":-94.452357,"courseId":"arkoma-park"},{"name":"Arlington City Park","locationName":"Arlington, SD","holeCount":10,"latitude":44.361,"longitude":-97.134,"courseId":"arlington-city-park"},{"name":"Arlington Heights Elementary","locationName":"Bloomington, IN","holeCount":9,"latitude":39.187762,"longitude":-86.542011,"courseId":"arlington-heights-elementary"},{"name":"Armbruster","locationName":"Rochester, MN","holeCount":9,"latitude":44.116942,"longitude":-92.448222,"courseId":"armbruster"},{"name":"Armco Park","locationName":"Lebanon, OH","holeCount":18,"latitude":39.457337,"longitude":-84.277769,"courseId":"armco-park"},{"name":"Armco Park - Blue Course","locationName":"Ashland, KY","holeCount":18,"latitude":38.436896,"longitude":-82.691796,"courseId":"armco-park-blue-course"},{"name":"Armco Park - White Course","locationName":"Ashland, KY","holeCount":19,"latitude":38.436896,"longitude":-82.691796,"courseId":"armco-park-white-course"},{"name":"Armco Red course","locationName":"Ashland, KY","holeCount":18,"latitude":38.436896,"longitude":-82.691796,"courseId":"armco-red-course"},{"name":"Armory Youth Project","locationName":"Manistee, MI","holeCount":9,"latitude":44.246115,"longitude":-86.33629,"courseId":"armory-youth-project"},{"name":"Armour City Park","locationName":"Armour, SD","holeCount":9,"latitude":43.327558,"longitude":-98.348381,"courseId":"armour-city-park"},{"name":"Armstrong Park","locationName":"Three Rivers, MI","holeCount":18,"latitude":41.963969,"longitude":-85.63476,"courseId":"armstrong-park"},{"name":"Armstrong World Industries","locationName":"Lancaster, PA","holeCount":11,"latitude":40.039879,"longitude":-76.372286,"courseId":"armstrong-world-industries"},{"name":"Arnold City Park","locationName":"Arnold, MO","holeCount":9,"latitude":38.4514,"longitude":-90.3535,"courseId":"arnold-city-park"},{"name":"Aronahde","locationName":"Rauma, Finland","holeCount":9,"latitude":61.114961,"longitude":21.510335,"courseId":"aronahde"},{"name":"Aros Park","locationName":"Tobermory, United Kingdom","holeCount":9,"latitude":56.611455,"longitude":-6.046323,"courseId":"aros-park"},{"name":"Arrow Valley Country Park","locationName":"Redditch, United Kingdom","holeCount":9,"latitude":52.307121,"longitude":-1.909692,"courseId":"arrow-valley-country-park"},{"name":"Arrowhead","locationName":"Louisville, KY","holeCount":27,"latitude":38.076221,"longitude":-85.899254,"courseId":"arrowhead"},{"name":"Arrowhead Park","locationName":"Wilmington, NC","holeCount":18,"latitude":34.136034,"longitude":-77.913178,"courseId":"arrowhead-park"},{"name":"Arrowhead Point","locationName":"Lago Vista, TX","holeCount":9,"latitude":30.447531,"longitude":-98.011474,"courseId":"arrowhead-point"},{"name":"Arrowhead State Park","locationName":"Canadian, OK","holeCount":18,"latitude":35.164056,"longitude":-95.640333,"courseId":"arrowhead-state-park"},{"name":"Arrowstone Park","locationName":"Deer Lodge, MT","holeCount":9,"latitude":46.384398,"longitude":-112.734948,"courseId":"arrowstone-park"},{"name":"Arroyo Chamisos","locationName":"Santa Fe, NM","holeCount":18,"latitude":35.642117,"longitude":-105.9903,"courseId":"arroyo-chamisos"},{"name":"Arroyo Grande","locationName":"Henderson, NV","holeCount":9,"latitude":36.045464,"longitude":-115.053581,"courseId":"arroyo-grande"},{"name":"Arsenal @ Southern Hills","locationName":"Danville, VA","holeCount":18,"latitude":36.556903,"longitude":-79.43255,"courseId":"arsenal-southern-hills"},{"name":"Art Dye Disc Golf Park","locationName":"American Fork, UT","holeCount":18,"latitude":40.397202,"longitude":-111.780899,"courseId":"art-dye-disc-golf-park"},{"name":"Art Gibbon Park","locationName":"Nelson, BC","holeCount":9,"latitude":49.479098,"longitude":-117.300153,"courseId":"art-gibbon-park"},{"name":"Arthur","locationName":"Arthur, ND","holeCount":4,"latitude":47.102,"longitude":-97.213,"courseId":"arthur"},{"name":"Arthur Latham Park","locationName":"Millington, MI","holeCount":27,"latitude":43.282493,"longitude":-83.547646,"courseId":"arthur-latham-park"},{"name":"Arthur O. Fisher Park","locationName":"Dayton, OH","holeCount":18,"latitude":39.734678,"longitude":-84.28472,"courseId":"arthur-o-fisher-park"},{"name":"Arvada West High School","locationName":"Arvada, CO","holeCount":2,"latitude":39.81731,"longitude":-105.084325,"courseId":"arvada-west-high-school"},{"name":"Arvig Park","locationName":"Perham, MN","holeCount":18,"latitude":46.600939,"longitude":-95.568792,"courseId":"arvig-park"},{"name":"Arvika Discgolf Park","locationName":"Ottebol, Varmland County","holeCount":18,"latitude":59.717662,"longitude":12.441554,"courseId":"arvika-discgolf-park"},{"name":"Asbury UMC","locationName":"Madison, AL","holeCount":9,"latitude":34.727786,"longitude":-86.744079,"courseId":"asbury-umc"},{"name":"Ascent Apartments","locationName":"Chattanooga, TN","holeCount":9,"latitude":35.108183,"longitude":-85.323976,"courseId":"ascent-apartments"},{"name":"Ascot Park","locationName":"Christchurch, Canterbury","holeCount":18,"latitude":-43.486895,"longitude":172.705647,"courseId":"ascot-park"},{"name":"Aserahawariyat Disc Golf","locationName":"Addis Ababa, Ethiopia","holeCount":18,"latitude":9.053582,"longitude":38.704902,"courseId":"aserahawariyat-disc-golf"},{"name":"Asessippi National","locationName":"Inglis, MB","holeCount":18,"latitude":50.965258,"longitude":-101.314059,"courseId":"asessippi-national"},{"name":"Ash Creek","locationName":"Azle, TX","holeCount":18,"latitude":32.883844,"longitude":-97.535387,"courseId":"ash-creek"},{"name":"Ash Grove City Park","locationName":"Ash Grove, MO","holeCount":9,"latitude":37.316186,"longitude":-93.580492,"courseId":"ash-grove-city-park"},{"name":"Ashbaugh Park","locationName":"Santa Fe, NM","holeCount":9,"latitude":35.668815,"longitude":-105.97237,"courseId":"ashbaugh-park"},{"name":"Ashborough","locationName":"Summerville, SC","holeCount":3,"latitude":32.953677,"longitude":-80.178706,"courseId":"ashborough"},{"name":"Ashe County Park","locationName":"Jefferson, NC","holeCount":18,"latitude":36.43739,"longitude":-81.4715,"courseId":"ashe-county-park"},{"name":"Ashe Lake - 18","locationName":"Brooklyn, MS","holeCount":18,"latitude":31.028622,"longitude":-89.169088,"courseId":"ashe-lake-18"},{"name":"Ashe Lake - 9","locationName":"Brooklyn, MS","holeCount":9,"latitude":31.031956,"longitude":-89.170094,"courseId":"ashe-lake-9"},{"name":"Ashenhurst","locationName":"Huddersfield, United Kingdom","holeCount":3,"latitude":53.631229,"longitude":-1.776356,"courseId":"ashenhurst"},{"name":"Ashland High School","locationName":"Ashland, KS","holeCount":12,"latitude":37.193989,"longitude":-99.77419,"courseId":"ashland-high-school"},{"name":"Ashland School Playground","locationName":"Ashland, WI","holeCount":9,"latitude":46.567114,"longitude":-90.877878,"courseId":"ashland-school-playground"},{"name":"Ashley Oaks","locationName":"London, ON","holeCount":2,"latitude":42.938349,"longitude":-81.241929,"courseId":"ashley-oaks"},{"name":"Ashton Court DiscGolfPark","locationName":"Bristol, United Kingdom","holeCount":9,"latitude":51.451149,"longitude":-2.643112,"courseId":"ashton-court-discgolfpark"},{"name":"Asikkala DiscGolfPark","locationName":"Asikkala, Finland","holeCount":12,"latitude":61.173569,"longitude":25.539225,"courseId":"asikkala-discgolfpark"},{"name":"Askola Disc Golf Park","locationName":"Askola, Finland","holeCount":14,"latitude":60.5321,"longitude":25.6108,"courseId":"askola-disc-golf-park"},{"name":"Aspen Acres","locationName":"Rexburg, ID","holeCount":25,"latitude":43.894893,"longitude":-111.788547,"courseId":"aspen-acres"},{"name":"Aspen Crossing Elementary School","locationName":"Aurora, CO","holeCount":7,"latitude":39.63254,"longitude":-104.751037,"courseId":"aspen-crossing-elementary-school"},{"name":"Aspen Hills","locationName":"Thayne, WY","holeCount":9,"latitude":42.987662,"longitude":-110.959429,"courseId":"aspen-hills"},{"name":"Aspen Meadows - East","locationName":"Sundre, AB","holeCount":18,"latitude":51.819215,"longitude":-114.913577,"courseId":"aspen-meadows-east"},{"name":"Aspen Meadows - West","locationName":"Sundre, AB","holeCount":18,"latitude":51.819684,"longitude":-114.919875,"courseId":"aspen-meadows-west"},{"name":"Aspen Mountain","locationName":"Aspen, CO","holeCount":18,"latitude":39.186491,"longitude":-106.818162,"courseId":"aspen-mountain"},{"name":"Aspen Park","locationName":"Bellevue, NE","holeCount":9,"latitude":41.18642,"longitude":-95.99975,"courseId":"aspen-park"},{"name":"Aspen Springs","locationName":"Aspen Springs, CO","holeCount":9,"latitude":37.213489,"longitude":-107.178192,"courseId":"aspen-springs"},{"name":"Association Retreat Center","locationName":"Osceola, WI","holeCount":9,"latitude":45.25,"longitude":-92.64,"courseId":"association-retreat-center"},{"name":"Astorhurst","locationName":"Walton Hills, OH","holeCount":18,"latitude":41.369272,"longitude":-81.582478,"courseId":"astorhurst"},{"name":"ASU Mid-South","locationName":"West Memphis, AR","holeCount":18,"latitude":35.145946,"longitude":-90.22147,"courseId":"asu-midsouth"},{"name":"ASU Poly Popup","locationName":"Mesa, AZ","holeCount":18,"latitude":33.307132,"longitude":-111.676208,"courseId":"asu-poly-popup"},{"name":"ASUMH","locationName":"Mountain Home, AR","holeCount":18,"latitude":36.321111,"longitude":-92.391111,"courseId":"asumh"},{"name":"Atchison High School","locationName":"Atchison, KS","holeCount":3,"latitude":39.568327,"longitude":-95.137881,"courseId":"atchison-high-school"},{"name":"Athens Library","locationName":"Athens, OH","holeCount":7,"latitude":39.20046,"longitude":-82.046,"courseId":"athens-library"},{"name":"Athens Regional Park","locationName":"Athens, TN","holeCount":18,"latitude":35.4575,"longitude":-84.638056,"courseId":"athens-regional-park"},{"name":"Athens State University","locationName":"Athens, AL","holeCount":9,"latitude":34.807364,"longitude":-86.963718,"courseId":"athens-state-university"},{"name":"Atkins Park","locationName":"Atkins, IA","holeCount":6,"latitude":41.99226,"longitude":-91.86182,"courseId":"atkins-park"},{"name":"Atkinson Park","locationName":"Henderson, KY","holeCount":18,"latitude":37.86101,"longitude":-87.578765,"courseId":"atkinson-park"},{"name":"Atlanten Frisbeegolfbane","locationName":"Kristiansund, Norway","holeCount":18,"latitude":63.12442,"longitude":7.743652,"courseId":"atlanten-frisbeegolfbane"},{"name":"Atlasta Park","locationName":"Franklin Grove, IL","holeCount":9,"latitude":41.835409,"longitude":-89.301447,"courseId":"atlasta-park"},{"name":"Atrain","locationName":"Kuopio, Finland","holeCount":18,"latitude":62.9349,"longitude":28.0378,"courseId":"atrain"},{"name":"Atwood Park","locationName":"Monticello, MS","holeCount":10,"latitude":31.552099,"longitude":-90.085331,"courseId":"atwood-park"},{"name":"Auburn City Park","locationName":"Auburn, KY","holeCount":9,"latitude":36.860888,"longitude":-86.703475,"courseId":"auburn-city-park"},{"name":"Auburn High School","locationName":"Riner, VA","holeCount":9,"latitude":37.05953,"longitude":-80.446151,"courseId":"auburn-high-school"},{"name":"Auburn Regional Park","locationName":"Auburn, CA","holeCount":18,"latitude":38.9539,"longitude":-121.10725,"courseId":"auburn-regional-park"},{"name":"Auburn University of Montgomery","locationName":"Montgomery, AL","holeCount":22,"latitude":32.363585,"longitude":-86.175103,"courseId":"auburn-university-of-montgomery"},{"name":"Audubon Park","locationName":"Garland, TX","holeCount":18,"latitude":32.846432,"longitude":-96.615355,"courseId":"audubon-park"},{"name":"Auesee","locationName":"Wesel, Germany","holeCount":5,"latitude":51.665417,"longitude":6.587258,"courseId":"auesee"},{"name":"Auf der Bergehalde","locationName":"Peißenberg, Germany","holeCount":9,"latitude":47.796234,"longitude":11.064725,"courseId":"auf-der-bergehalde"},{"name":"Auf der Eben","locationName":"Hofamt Priel, Austria","holeCount":9,"latitude":48.221861,"longitude":15.062574,"courseId":"auf-der-eben"},{"name":"August Horst","locationName":"Navasota, TX","holeCount":18,"latitude":30.376319,"longitude":-96.109031,"courseId":"august-horst"},{"name":"Augusta Disc Golf - Casper","locationName":"Augusta, ME","holeCount":18,"latitude":44.294335,"longitude":-69.768158,"courseId":"augusta-disc-golf-casper"},{"name":"Augusta Disc Golf - Ghost Tree","locationName":"Augusta, ME","holeCount":18,"latitude":44.294571,"longitude":-69.768516,"courseId":"augusta-disc-golf-ghost-tree"},{"name":"Augusta Disc Golf - Quarry Run","locationName":"Augusta, ME","holeCount":18,"latitude":44.294571,"longitude":-69.768516,"courseId":"augusta-disc-golf-quarry-run"},{"name":"Aumiller Park","locationName":"Bucyrus, OH","holeCount":18,"latitude":40.804958,"longitude":-82.99149,"courseId":"aumiller-park"},{"name":"Auran Frisbee Golfa Parka","locationName":"Aura, Finland","holeCount":9,"latitude":60.6336,"longitude":22.6085,"courseId":"auran-frisbee-golfa-parka"},{"name":"Aurora","locationName":"Aurora, MO","holeCount":9,"latitude":36.972805,"longitude":-93.732308,"courseId":"aurora-aurora-mo"},{"name":"Aurora","locationName":"Aurora, OR","holeCount":9,"latitude":45.22498,"longitude":-122.755838,"courseId":"aurora-aurora-or"},{"name":"Ausable Chasm","locationName":"Keeseville, NY","holeCount":18,"latitude":44.52486,"longitude":-73.461746,"courseId":"ausable-chasm"},{"name":"Ausable Chasm Safari Course","locationName":"Keeseville, NY","holeCount":18,"latitude":44.52486,"longitude":-73.461746,"courseId":"ausable-chasm-safari-course"},{"name":"Austin Baptist Church","locationName":"Austin, TX","holeCount":9,"latitude":30.39425,"longitude":-97.83048,"courseId":"austin-baptist-church"},{"name":"Austin Ridge Bible Church","locationName":"Austin, TX","holeCount":20,"latitude":30.322209,"longitude":-97.871334,"courseId":"austin-ridge-bible-church"},{"name":"Austin Ridge Bible Church Southwest","locationName":"Austin, TX","holeCount":9,"latitude":30.239505,"longitude":-97.877909,"courseId":"austin-ridge-bible-church-southwest"},{"name":"Austins Colony","locationName":"Bryan, TX","holeCount":9,"latitude":30.6827,"longitude":-96.3338,"courseId":"austins-colony"},{"name":"Austintown Township Park","locationName":"Austintown, OH","holeCount":18,"latitude":41.071327,"longitude":-80.775826,"courseId":"austintown-township-park"},{"name":"Autionranta DiscGolfPark","locationName":"Pyhäntä, Finland","holeCount":9,"latitude":64.106929,"longitude":26.337018,"courseId":"autionranta-discgolfpark"},{"name":"Autumn Creek Park","locationName":"Schererville, IN","holeCount":9,"latitude":41.485326,"longitude":-87.418368,"courseId":"autumn-creek-park"},{"name":"Autumn Hill","locationName":"Union, MO","holeCount":11,"latitude":38.44825,"longitude":-91.024608,"courseId":"autumn-hill"},{"name":"Autumn Ridge Subdivision Park","locationName":"Ixonia, WI","holeCount":9,"latitude":43.141345,"longitude":-88.611635,"courseId":"autumn-ridge-subdivision-park"},{"name":"Avail Academy","locationName":"Blaine, MN","holeCount":10,"latitude":45.13341,"longitude":-93.242114,"courseId":"avail-academy"},{"name":"Avalanche Preserve","locationName":"Boyne City, MI","holeCount":18,"latitude":45.201084,"longitude":-85.012871,"courseId":"avalanche-preserve"},{"name":"Avalon DGP","locationName":"Avalon, CA","holeCount":18,"latitude":33.3381,"longitude":-118.330598,"courseId":"avalon-dgp"},{"name":"Avalon Park","locationName":"Victorville, CA","holeCount":6,"latitude":34.538,"longitude":-117.307,"courseId":"avalon-park"},{"name":"Avenel Local Park","locationName":"Potomac, MD","holeCount":9,"latitude":38.998603,"longitude":-77.197405,"courseId":"avenel-local-park"},{"name":"Average Joe's","locationName":"New Portland, ME","holeCount":9,"latitude":44.912884,"longitude":-70.027862,"courseId":"average-joes"},{"name":"Avery Preserve DiscGolfPark","locationName":"Plainfield, IL","holeCount":9,"latitude":41.6092,"longitude":-88.170298,"courseId":"avery-preserve-discgolfpark"},{"name":"Avery's Spring","locationName":"Asheville, NC","holeCount":18,"latitude":35.4547,"longitude":-82.572231,"courseId":"averys-spring"},{"name":"Avesta DiscGolfPark","locationName":"Avesta, Sweden","holeCount":12,"latitude":60.14,"longitude":16.1801,"courseId":"avesta-discgolfpark"},{"name":"Avinurme","locationName":"Avinurme, Estonia","holeCount":9,"latitude":58.985041,"longitude":26.870438,"courseId":"avinurme"},{"name":"Avion Shopping Park DiscGolfPark","locationName":"Ostrava, Czech Republic","holeCount":9,"latitude":49.803989,"longitude":18.22763,"courseId":"avion-shopping-park-discgolfpark"},{"name":"Avoca","locationName":"Avoca, IA","holeCount":9,"latitude":41.477127,"longitude":-95.32395,"courseId":"avoca"},{"name":"Avoca City Park","locationName":"Avoca, AR","holeCount":9,"latitude":36.399748,"longitude":-94.073009,"courseId":"avoca-city-park"},{"name":"Avon Town Hall","locationName":"Avon, IN","holeCount":9,"latitude":39.768002,"longitude":-86.407997,"courseId":"avon-town-hall"},{"name":"AWO-Schullandheim","locationName":"Netzschkau, Germany","holeCount":9,"latitude":50.617611,"longitude":12.234222,"courseId":"awoschullandheim"},{"name":"Axldog Acres","locationName":"Boyceville, WI","holeCount":27,"latitude":44.997074,"longitude":-92.05586,"courseId":"axldog-acres"},{"name":"Ayden Park","locationName":"Ayden, NC","holeCount":18,"latitude":35.488944,"longitude":-77.427135,"courseId":"ayden-park"},{"name":"Azalea Park","locationName":"St. Petersburg, FL","holeCount":9,"latitude":27.788484,"longitude":-82.739556,"courseId":"azalea-park"},{"name":"Azalea State Park","locationName":"Brookings, OR","holeCount":18,"latitude":42.057554,"longitude":-124.273105,"courseId":"azalea-state-park"},{"name":"Aztec City","locationName":"Aztec, NM","holeCount":18,"latitude":36.82229,"longitude":-107.965593,"courseId":"aztec-city"},{"name":"B. Baumgardner Memorial - Advanced","locationName":"Cottonwood Falls, KS","holeCount":18,"latitude":38.369282,"longitude":-96.537615,"courseId":"b-baumgardner-memorial-advanced"},{"name":"B. Baumgardner Memorial - Junior","locationName":"Cottonwood Falls, KS","holeCount":9,"latitude":38.369282,"longitude":-96.537615,"courseId":"b-baumgardner-memorial-junior"},{"name":"B. Cordell","locationName":"Fayetteville, NC","holeCount":18,"latitude":35.004049,"longitude":-78.860507,"courseId":"b-cordell"},{"name":"B. Schmitz Park","locationName":"Tomball, TX","holeCount":9,"latitude":30.003722,"longitude":-95.602824,"courseId":"b-schmitz-park"},{"name":"Babcock Park","locationName":"Rocky Ford, CO","holeCount":18,"latitude":38.042109,"longitude":-103.728619,"courseId":"babcock-park"},{"name":"Back 40 at Fulkerson Winery and Farm","locationName":"Dundee, NY","holeCount":18,"latitude":42.492336,"longitude":-76.925093,"courseId":"back-40-at-fulkerson-winery-and-farm"},{"name":"Back Island","locationName":"Wilmington Island, GA","holeCount":9,"latitude":31.974612,"longitude":-80.998512,"courseId":"back-island"},{"name":"Back Pew Brewing","locationName":"Porter, TX","holeCount":2,"latitude":30.064584,"longitude":-95.262833,"courseId":"back-pew-brewing"},{"name":"Backwoods Tavern","locationName":"Greenville, NC","holeCount":9,"latitude":35.572495,"longitude":-77.246717,"courseId":"backwoods-tavern"},{"name":"Backyard Brew Disc Golf","locationName":"Ashwaubenon, WI","holeCount":18,"latitude":44.45237,"longitude":-88.10977,"courseId":"backyard-brew-disc-golf"},{"name":"Backyard Park","locationName":"Sweeny, TX","holeCount":9,"latitude":29.045575,"longitude":-95.711916,"courseId":"backyard-park"},{"name":"Bacon Memorial Park","locationName":"Poplar Bluff, MO","holeCount":9,"latitude":36.76673,"longitude":-90.4112,"courseId":"bacon-memorial-park"},{"name":"Bacon Woods","locationName":"Vermilion, OH","holeCount":12,"latitude":41.380857,"longitude":-82.319454,"courseId":"bacon-woods"},{"name":"Bacone College","locationName":"Muskogee, OK","holeCount":9,"latitude":35.775773,"longitude":-95.33398,"courseId":"bacone-college"},{"name":"Bad","locationName":"Bad Saeckingen, Germany","holeCount":5,"latitude":47.557673,"longitude":7.943876,"courseId":"bad"},{"name":"Bad Fredeburg DGP","locationName":"Bad Fredeburg, Germany","holeCount":18,"latitude":51.197123,"longitude":8.319455,"courseId":"bad-fredeburg-dgp"},{"name":"Bad Rappenau Kurpark","locationName":"Bad Rappenau, Germany","holeCount":9,"latitude":49.241025,"longitude":9.112706,"courseId":"bad-rappenau-kurpark"},{"name":"Bad Rock Creek","locationName":"Liberty, MO","holeCount":18,"latitude":39.232933,"longitude":-94.389524,"courseId":"bad-rock-creek"},{"name":"Bad Wünnenberg","locationName":"Bad Wünnenberg, Germany","holeCount":4,"latitude":51.50976,"longitude":8.704578,"courseId":"bad-wnnenberg"},{"name":"Badger Park","locationName":"Peshtigo, WI","holeCount":18,"latitude":45.060017,"longitude":-87.749959,"courseId":"badger-park"},{"name":"Badlands Disc Golf","locationName":"Wayne, AB","holeCount":18,"latitude":51.3826,"longitude":-112.6597,"courseId":"badlands-disc-golf"},{"name":"Badu Park","locationName":"Llano, TX","holeCount":9,"latitude":30.755965,"longitude":-98.680328,"courseId":"badu-park"},{"name":"Bagatelle Golf Park","locationName":"Moka, Moka District","holeCount":9,"latitude":-20.223166,"longitude":57.493284,"courseId":"bagatelle-golf-park"},{"name":"Baggenstoss Farms","locationName":"Tracy City, TN","holeCount":9,"latitude":35.2935,"longitude":-85.7727,"courseId":"baggenstoss-farms"},{"name":"Bagley City Park","locationName":"Bagley, MN","holeCount":9,"latitude":47.526833,"longitude":-95.400548,"courseId":"bagley-city-park"},{"name":"Bagn Frisbeegolfbane","locationName":"Sør-aurdal, Norway","holeCount":5,"latitude":60.8248,"longitude":9.55025,"courseId":"bagn-frisbeegolfbane"},{"name":"Bahrsplate DiscGolfPark","locationName":"Bremen, Germany","holeCount":9,"latitude":53.181664,"longitude":8.564528,"courseId":"bahrsplate-discgolfpark"},{"name":"Bailey Lake","locationName":"Burleson, TX","holeCount":18,"latitude":32.52631,"longitude":-97.323474,"courseId":"bailey-lake"},{"name":"Bailey Park","locationName":"Camp Point, IL","holeCount":18,"latitude":40.049419,"longitude":-91.066279,"courseId":"bailey-park"},{"name":"Bailey Road Park","locationName":"Cornelius, NC","holeCount":21,"latitude":35.463777,"longitude":-80.843733,"courseId":"bailey-road-park"},{"name":"Bainbridge High School","locationName":"Bainbridge, GA","holeCount":9,"latitude":30.884878,"longitude":-84.481312,"courseId":"bainbridge-high-school"},{"name":"Bainbridge Park","locationName":"Ocean Pines, MD","holeCount":18,"latitude":38.391918,"longitude":-75.171257,"courseId":"bainbridge-park"},{"name":"Bajikoen","locationName":"Minamisoma, Japan","holeCount":27,"latitude":37.592359,"longitude":140.93188,"courseId":"bajikoen"},{"name":"Baker","locationName":"Baker City, OR","holeCount":9,"latitude":44.790196,"longitude":-117.836008,"courseId":"baker"},{"name":"Baker Farm","locationName":"Prudence Island, RI","holeCount":18,"latitude":41.607312,"longitude":-71.311899,"courseId":"baker-farm"},{"name":"Baker High School","locationName":"Mobile, AL","holeCount":9,"latitude":30.672536,"longitude":-88.254858,"courseId":"baker-high-school"},{"name":"Baker Lake Park","locationName":"Peru, IL","holeCount":18,"latitude":41.346971,"longitude":-89.11181,"courseId":"baker-lake-park"},{"name":"Baker Park","locationName":"Calgary, AB","holeCount":18,"latitude":51.101343,"longitude":-114.218969,"courseId":"baker-park-calgary-ab"},{"name":"Baker Park","locationName":"Dixon, KY","holeCount":9,"latitude":37.522686,"longitude":-87.698663,"courseId":"baker-park-dixon-ky"},{"name":"Baker Park","locationName":"Kewanee, IL","holeCount":18,"latitude":41.253204,"longitude":-89.936332,"courseId":"baker-park-kewanee-il"},{"name":"Bakers","locationName":"Kellogg, IA","holeCount":9,"latitude":41.748791,"longitude":-92.839175,"courseId":"bakers"},{"name":"Bakerview Park","locationName":"Mount Vernon, WA","holeCount":9,"latitude":48.42829,"longitude":-122.30127,"courseId":"bakerview-park"},{"name":"Bakkafjordur Discgolf","locationName":"Bakkafjordur, Iceland","holeCount":9,"latitude":66.036927,"longitude":-14.801709,"courseId":"bakkafjordur-discgolf"},{"name":"Balaton","locationName":"Balaton, MN","holeCount":9,"latitude":44.234,"longitude":-95.879,"courseId":"balaton"},{"name":"Bald Eagle","locationName":"Stockholm, WI","holeCount":9,"latitude":44.452868,"longitude":-92.200956,"courseId":"bald-eagle"},{"name":"Bald Hill Park","locationName":"Melbourne, Australia","holeCount":18,"latitude":-37.931,"longitude":145.107,"courseId":"bald-hill-park"},{"name":"Bald Mountain","locationName":"Orion Charter Township, MI","holeCount":18,"latitude":42.73705,"longitude":-83.225235,"courseId":"bald-mountain"},{"name":"Baldwin City Lake","locationName":"Baldwin City, KS","holeCount":18,"latitude":38.754941,"longitude":-95.161246,"courseId":"baldwin-city-lake"},{"name":"Baldwin Schools","locationName":"Baldwin, MI","holeCount":9,"latitude":43.889728,"longitude":-85.858489,"courseId":"baldwin-schools"},{"name":"Baldwin-Wallace University","locationName":"Berea, OH","holeCount":16,"latitude":41.373822,"longitude":-81.849357,"courseId":"baldwinwallace-university"},{"name":"Bale' Club","locationName":"Johor, Malaysia","holeCount":18,"latitude":1.394373,"longitude":103.605238,"courseId":"bale-club"},{"name":"Balgriffen Park","locationName":"Dublin, OH","holeCount":9,"latitude":40.084614,"longitude":-83.15356,"courseId":"balgriffen-park"},{"name":"Ballan-Miré - Bois de cinquième","locationName":"Ballan-Miré, Centre-Val de Loire","holeCount":9,"latitude":47.347568,"longitude":0.614827,"courseId":"ballanmir-bois-de-cinquime"},{"name":"Ballard","locationName":"Tupelo, MS","holeCount":18,"latitude":34.248574,"longitude":-88.768278,"courseId":"ballard"},{"name":"Ballards","locationName":"Baxter Springs, KS","holeCount":18,"latitude":37.023558,"longitude":-94.754376,"courseId":"ballards"},{"name":"Ballinger Park","locationName":"Ballinger, TX","holeCount":9,"latitude":31.749089,"longitude":-99.946989,"courseId":"ballinger-park"},{"name":"Ballou Park - Course #1","locationName":"Danville, VA","holeCount":9,"latitude":36.573074,"longitude":-79.421749,"courseId":"ballou-park-course-1"},{"name":"Ballou Park - Course #2","locationName":"Danville, VA","holeCount":18,"latitude":36.575074,"longitude":-79.42385,"courseId":"ballou-park-course-2"},{"name":"Ballyhoo Family Campground","locationName":"Crossville, TN","holeCount":9,"latitude":35.905104,"longitude":-85.019723,"courseId":"ballyhoo-family-campground"},{"name":"Ballyknock","locationName":"Sugar Grove, WV","holeCount":18,"latitude":38.490649,"longitude":-79.343384,"courseId":"ballyknock"},{"name":"Balmangan Bay Farm","locationName":"Kirkcudbright, United Kingdom","holeCount":9,"latitude":54.786551,"longitude":-4.098255,"courseId":"balmangan-bay-farm"},{"name":"Balsam","locationName":"Balsam, MN","holeCount":9,"latitude":47.477729,"longitude":-93.363812,"courseId":"balsam"},{"name":"Baltic Heights","locationName":"Baltic, SD","holeCount":9,"latitude":43.7635,"longitude":-96.730933,"courseId":"baltic-heights"},{"name":"Baltupiu DG Parkas","locationName":"Vilnius, Lithuania","holeCount":5,"latitude":54.726742,"longitude":25.270433,"courseId":"baltupiu-dg-parkas"},{"name":"Bamford Park","locationName":"Davie, FL","holeCount":6,"latitude":26.071171,"longitude":-80.269326,"courseId":"bamford-park"},{"name":"Bamford Sports Complex","locationName":"Davie, FL","holeCount":4,"latitude":26.07125,"longitude":-80.269546,"courseId":"bamford-sports-complex"},{"name":"Bancroft","locationName":"Bancroft, NE","holeCount":9,"latitude":42.009871,"longitude":-96.575152,"courseId":"bancroft"},{"name":"Band Shell Park","locationName":"Plainview, NE","holeCount":9,"latitude":42.353428,"longitude":-97.79335,"courseId":"band-shell-park"},{"name":"Bandemer Park","locationName":"Ann Arbor, MI","holeCount":9,"latitude":42.301119,"longitude":-83.744853,"courseId":"bandemer-park"},{"name":"Bandimere Park","locationName":"Chanhassen, MN","holeCount":9,"latitude":44.836532,"longitude":-93.536637,"courseId":"bandimere-park"},{"name":"Bandits Cove","locationName":"Logan, UT","holeCount":12,"latitude":41.624045,"longitude":-111.79571,"courseId":"bandits-cove"},{"name":"Banner Creek Reservoir","locationName":"Holton, KS","holeCount":9,"latitude":39.461321,"longitude":-95.779366,"courseId":"banner-creek-reservoir"},{"name":"Banqiao Xindian","locationName":"New Taipei City, Taiwan","holeCount":12,"latitude":25.031966,"longitude":121.459587,"courseId":"banqiao-xindian"},{"name":"Baptist College of Florida","locationName":"Graceville, FL","holeCount":9,"latitude":30.962269,"longitude":-85.505227,"courseId":"baptist-college-of-florida"},{"name":"Bar Nunn","locationName":"Bar Nunn, WY","holeCount":9,"latitude":42.923482,"longitude":-106.342537,"courseId":"bar-nunn"},{"name":"Barber Park","locationName":"Montrose, MI","holeCount":9,"latitude":43.17351,"longitude":-83.877355,"courseId":"barber-park"},{"name":"Barber Park - 18","locationName":"Greensboro, NC","holeCount":18,"latitude":36.053156,"longitude":-79.751989,"courseId":"barber-park-18"},{"name":"Barber Park - 9","locationName":"Greensboro, NC","holeCount":9,"latitude":36.05397,"longitude":-79.752458,"courseId":"barber-park-9"},{"name":"Barboursville City Park","locationName":"Barboursville, WV","holeCount":18,"latitude":38.388492,"longitude":-82.299981,"courseId":"barboursville-city-park"},{"name":"Barclay College","locationName":"Haviland, KS","holeCount":18,"latitude":37.62144,"longitude":-99.104606,"courseId":"barclay-college"},{"name":"Bard Park","locationName":"Stanfield, OR","holeCount":9,"latitude":45.784032,"longitude":-119.218303,"courseId":"bard-park"},{"name":"Búðardalur","locationName":"Búðardalur, Iceland","holeCount":9,"latitude":65.1082,"longitude":-21.7643,"courseId":"bardalur"},{"name":"Barefoot Lakes Waterside Park","locationName":"Longmont, CO","holeCount":3,"latitude":40.185854,"longitude":-104.966585,"courseId":"barefoot-lakes-waterside-park"},{"name":"Barfield Crescent Park","locationName":"Murfreesboro, TN","holeCount":18,"latitude":35.781318,"longitude":-86.413307,"courseId":"barfield-crescent-park"},{"name":"BarkEater","locationName":"Paul Smiths, NY","holeCount":18,"latitude":44.447035,"longitude":-74.255974,"courseId":"barkeater"},{"name":"Barling City Park","locationName":"Barling, AR","holeCount":18,"latitude":35.332551,"longitude":-94.286614,"courseId":"barling-city-park"},{"name":"Barnesfield","locationName":"King George, VA","holeCount":18,"latitude":38.36008,"longitude":-77.021655,"courseId":"barnesfield"},{"name":"Barnet Park","locationName":"Kinston, NC","holeCount":18,"latitude":35.27875,"longitude":-77.640483,"courseId":"barnet-park"},{"name":"Barnsley Gardens Resort","locationName":"Adairsville, GA","holeCount":9,"latitude":34.300865,"longitude":-84.986163,"courseId":"barnsley-gardens-resort"},{"name":"Barnstable United School","locationName":"Barnstable, MA","holeCount":6,"latitude":41.660671,"longitude":-70.388411,"courseId":"barnstable-united-school"},{"name":"Barnstorfer Wald","locationName":"Rostock, Germany","holeCount":12,"latitude":54.082159,"longitude":12.097712,"courseId":"barnstorfer-wald"},{"name":"Barnum High School","locationName":"Barnum, MN","holeCount":9,"latitude":46.507744,"longitude":-92.678545,"courseId":"barnum-high-school"},{"name":"Barnwell","locationName":"Barnwell, AB","holeCount":6,"latitude":49.759279,"longitude":-112.265855,"courseId":"barnwell"},{"name":"Barnwell Park Disc Golf","locationName":"Five Dock, Australia","holeCount":18,"latitude":-33.865772,"longitude":151.119468,"courseId":"barnwell-park-disc-golf"},{"name":"Barre Falls","locationName":"Barre, MA","holeCount":18,"latitude":42.427966,"longitude":-72.0238,"courseId":"barre-falls"},{"name":"Barsness Park","locationName":"Glenwood, MN","holeCount":27,"latitude":45.640344,"longitude":-95.381116,"courseId":"barsness-park"},{"name":"Bartholomew Park","locationName":"Austin, TX","holeCount":18,"latitude":30.301533,"longitude":-97.691566,"courseId":"bartholomew-park"},{"name":"Bartlett Park DGP","locationName":"Porterville, CA","holeCount":18,"latitude":36.05402,"longitude":-118.927036,"courseId":"bartlett-park-dgp"},{"name":"Bartlett Park - Main","locationName":"St. Joseph, MO","holeCount":19,"latitude":39.751705,"longitude":-94.81812,"courseId":"bartlett-park-main"},{"name":"Bartlett Park - Midtown","locationName":"Saint Joseph, MO","holeCount":9,"latitude":39.75312,"longitude":-94.817532,"courseId":"bartlett-park-midtown"},{"name":"Barton City Hills","locationName":"Barton City, MI","holeCount":18,"latitude":44.694275,"longitude":-83.736182,"courseId":"barton-city-hills"},{"name":"Barwon Valley","locationName":"Geelong, Australia","holeCount":9,"latitude":-38.164584,"longitude":144.336767,"courseId":"barwon-valley"},{"name":"Base Camp Adventure Lodge","locationName":"Moab, UT","holeCount":18,"latitude":38.474128,"longitude":-109.654103,"courseId":"base-camp-adventure-lodge"},{"name":"Base Camp at Horse Butte","locationName":"Bend, OR","holeCount":18,"latitude":43.970083,"longitude":-121.229877,"courseId":"base-camp-at-horse-butte"},{"name":"Base Camp II","locationName":"Moab, UT","holeCount":18,"latitude":38.474011,"longitude":-109.653929,"courseId":"base-camp-ii"},{"name":"Base Camp Outfitters","locationName":"Killington, VT","holeCount":18,"latitude":43.668089,"longitude":-72.803124,"courseId":"base-camp-outfitters"},{"name":"Basehor-Linwood Middle School","locationName":"Bonner Springs, KS","holeCount":9,"latitude":39.093166,"longitude":-94.947528,"courseId":"basehorlinwood-middle-school"},{"name":"Basil Griffin Park","locationName":"Bowling Green, KY","holeCount":18,"latitude":36.920722,"longitude":-86.441268,"courseId":"basil-griffin-park"},{"name":"Basil Grover","locationName":"London, ON","holeCount":9,"latitude":42.956462,"longitude":-81.262726,"courseId":"basil-grover"},{"name":"Basil Marella Park","locationName":"Greece, NY","holeCount":18,"latitude":43.23481,"longitude":-77.677712,"courseId":"basil-marella-park"},{"name":"Basilisk Acres","locationName":"Riverton, WY","holeCount":9,"latitude":43.138056,"longitude":-108.614722,"courseId":"basilisk-acres"},{"name":"Basingstoke Disc Golf Club","locationName":"Basingstoke, United Kingdom","holeCount":18,"latitude":51.246007,"longitude":-1.12722,"courseId":"basingstoke-disc-golf-club"},{"name":"Bass Lake Camp","locationName":"Winnebago, MN","holeCount":9,"latitude":43.816739,"longitude":-94.073634,"courseId":"bass-lake-camp"},{"name":"Bassett Creek park","locationName":"Crystal, MN","holeCount":18,"latitude":45.012971,"longitude":-93.35282,"courseId":"bassett-creek-park"},{"name":"Batavia Township Sports Complex","locationName":"Batavia, OH","holeCount":18,"latitude":39.062777,"longitude":-84.216854,"courseId":"batavia-township-sports-complex"},{"name":"Bates Park","locationName":"Angleton, TX","holeCount":18,"latitude":29.159863,"longitude":-95.4435,"courseId":"bates-park"},{"name":"Battery Park","locationName":"Richmond, VA","holeCount":9,"latitude":37.561611,"longitude":-77.437523,"courseId":"battery-park"},{"name":"Battle Creek","locationName":"Prospect, OH","holeCount":9,"latitude":40.448637,"longitude":-83.18337,"courseId":"battle-creek"},{"name":"Battle Lake Rec. Park","locationName":"Battle Lake, MN","holeCount":6,"latitude":46.284185,"longitude":-95.721796,"courseId":"battle-lake-rec-park"},{"name":"Battle Park","locationName":"Rocky Mount, NC","holeCount":18,"latitude":35.963155,"longitude":-77.805452,"courseId":"battle-park"},{"name":"Battle Point","locationName":"Bainbridge Island, WA","holeCount":9,"latitude":47.661343,"longitude":-122.578201,"courseId":"battle-point"},{"name":"Battle Ridge","locationName":"Bozeman, MT","holeCount":18,"latitude":45.882738,"longitude":-110.881904,"courseId":"battle-ridge"},{"name":"Battleground Disc Golf","locationName":"Philippi, WV","holeCount":18,"latitude":39.155421,"longitude":-80.048231,"courseId":"battleground-disc-golf"},{"name":"Baughman-Belatti Park","locationName":"Madison, SD","holeCount":9,"latitude":44.007389,"longitude":-97.093075,"courseId":"baughmanbelatti-park"},{"name":"Baw Beese Lake/Owen Park","locationName":"Hillsdale, MI","holeCount":9,"latitude":41.907623,"longitude":-84.613693,"courseId":"baw-beese-lakeowen-park"},{"name":"Baxter Morgan park","locationName":"Keego Harbor, MI","holeCount":9,"latitude":42.60362,"longitude":-83.34694,"courseId":"baxter-morgan-park"},{"name":"Bay 26","locationName":"Gloucester, VA","holeCount":26,"latitude":37.365168,"longitude":-76.541858,"courseId":"bay-26"},{"name":"Bay Court Park","locationName":"Clarkston, MI","holeCount":9,"latitude":42.70797,"longitude":-83.426174,"courseId":"bay-court-park"},{"name":"Bay Memorial Garden Club","locationName":"Panama City, FL","holeCount":9,"latitude":30.164623,"longitude":-85.672473,"courseId":"bay-memorial-garden-club"},{"name":"Bay Oaks","locationName":"Fort Myers Beach, FL","holeCount":18,"latitude":26.449106,"longitude":-81.940691,"courseId":"bay-oaks"},{"name":"Bay Street Park","locationName":"Texas City, TX","holeCount":18,"latitude":29.40033,"longitude":-94.892749,"courseId":"bay-street-park"},{"name":"Bay View School","locationName":"Burlington, WA","holeCount":4,"latitude":48.487092,"longitude":-122.418715,"courseId":"bay-view-school"},{"name":"Bayard Park","locationName":"Evansville, IN","holeCount":18,"latitude":37.964721,"longitude":-87.547984,"courseId":"bayard-park"},{"name":"Bayfield County Courthouse","locationName":"Washburn, WI","holeCount":2,"latitude":46.677238,"longitude":-90.892442,"courseId":"bayfield-county-courthouse"},{"name":"Baylor Park","locationName":"Norwood Young America, MN","holeCount":18,"latitude":44.80981,"longitude":-93.941899,"courseId":"baylor-park"},{"name":"Baylor University","locationName":"Waco, TX","holeCount":4,"latitude":31.546406,"longitude":-97.113428,"courseId":"baylor-university"},{"name":"Bayou Bend","locationName":"Deer Park, TX","holeCount":9,"latitude":29.673539,"longitude":-95.126953,"courseId":"bayou-bend"},{"name":"Bayside Back Nine","locationName":"Belleville, ON","holeCount":9,"latitude":44.126427,"longitude":-77.476573,"courseId":"bayside-back-nine"},{"name":"Bayview Golf Course","locationName":"Shuniah, ON","holeCount":18,"latitude":48.586201,"longitude":-88.751238,"courseId":"bayview-golf-course"},{"name":"Bayville Park","locationName":"Virginia Beach, VA","holeCount":18,"latitude":36.903488,"longitude":-76.117744,"courseId":"bayville-park"},{"name":"BB Owen Park","locationName":"Dallas, TX","holeCount":23,"latitude":32.881285,"longitude":-96.699997,"courseId":"bb-owen-park"},{"name":"BCCC","locationName":"Washington, NC","holeCount":18,"latitude":35.533037,"longitude":-76.967404,"courseId":"bccc"},{"name":"Bäckalyckan","locationName":"Vaggeryd, Småland, Sweden","holeCount":9,"latitude":57.498463,"longitude":14.12432,"courseId":"bckalyckan"},{"name":"Be Kind Micro","locationName":"Florence, TX","holeCount":9,"latitude":30.83493,"longitude":-97.792957,"courseId":"be-kind-micro"},{"name":"Beach City Dam","locationName":"Beach City, OH","holeCount":18,"latitude":40.635162,"longitude":-81.554933,"courseId":"beach-city-dam"},{"name":"Beaches","locationName":"Toronto, ON","holeCount":9,"latitude":43.661307,"longitude":-79.317296,"courseId":"beaches"},{"name":"Beachfront Park","locationName":"Crescent City, CA","holeCount":24,"latitude":41.748551,"longitude":-124.19592,"courseId":"beachfront-park"},{"name":"Beacon Glades","locationName":"Beacon, NY","holeCount":20,"latitude":41.488336,"longitude":-73.965787,"courseId":"beacon-glades"},{"name":"Beacon Hill","locationName":"Camp Humphreys, Korea (South)","holeCount":18,"latitude":36.9667,"longitude":127.0333,"courseId":"beacon-hill"},{"name":"Beacon Hills Park","locationName":"Highland, UT","holeCount":18,"latitude":40.453245,"longitude":-111.801282,"courseId":"beacon-hills-park"},{"name":"Beacon Lake","locationName":"Benton, IL","holeCount":9,"latitude":37.99876,"longitude":-88.90897,"courseId":"beacon-lake-benton-il"},{"name":"Beacon Lake","locationName":"St. Augustine, FL","holeCount":11,"latitude":30.08082,"longitude":-81.47622,"courseId":"beacon-lake-st-augustine-fl"},{"name":"Beacon Lake","locationName":"St. Johns, FL","holeCount":6,"latitude":30.083541,"longitude":-81.472245,"courseId":"beacon-lake-st-johns-fl"},{"name":"Beal Park","locationName":"Midland, TX","holeCount":18,"latitude":31.966476,"longitude":-102.139193,"courseId":"beal-park"},{"name":"Beal Slough","locationName":"Lincoln, NE","holeCount":18,"latitude":40.741412,"longitude":-96.635198,"courseId":"beal-slough"},{"name":"Beale's Treasure","locationName":"Montvale, VA","holeCount":18,"latitude":37.363099,"longitude":-79.708006,"courseId":"beales-treasure"},{"name":"Beallsville Park","locationName":"Beallsville, OH","holeCount":9,"latitude":39.848416,"longitude":-81.044879,"courseId":"beallsville-park"},{"name":"Bear Basin","locationName":"McCall, ID","holeCount":18,"latitude":44.941246,"longitude":-116.13884,"courseId":"bear-basin"},{"name":"Bear Branch Sportsfield Park","locationName":"The Woodlands, TX","holeCount":18,"latitude":30.191,"longitude":-95.4951,"courseId":"bear-branch-sportsfield-park"},{"name":"Bear Cave Park","locationName":"Stewartville, MN","holeCount":18,"latitude":43.858722,"longitude":-92.502244,"courseId":"bear-cave-park"},{"name":"Bear Creek Baptist Church","locationName":"Glenn Heights, TX","holeCount":9,"latitude":32.556887,"longitude":-96.856329,"courseId":"bear-creek-baptist-church"},{"name":"Bear Creek Bible Church","locationName":"Keller, TX","holeCount":6,"latitude":32.900504,"longitude":-97.218272,"courseId":"bear-creek-bible-church"},{"name":"Bear Creek Disc Golf","locationName":"Robbins, NC","holeCount":18,"latitude":35.433999,"longitude":-79.592312,"courseId":"bear-creek-disc-golf"},{"name":"Bear Creek","locationName":"Medford, OR","holeCount":9,"latitude":42.304155,"longitude":-122.851003,"courseId":"bear-creek-medford-or"},{"name":"Bear Creek - Original","locationName":"Macungie, PA","holeCount":18,"latitude":40.479577,"longitude":-75.622609,"courseId":"bear-creek-original"},{"name":"Bear Creek Park","locationName":"Meridian, ID","holeCount":9,"latitude":43.58451,"longitude":-116.403054,"courseId":"bear-creek-park"},{"name":"Bear Creek Resort","locationName":"Thompson Falls, MT","holeCount":18,"latitude":47.763579,"longitude":-115.466477,"courseId":"bear-creek-resort"},{"name":"Bear Creek","locationName":"Shellsburg, IA","holeCount":6,"latitude":42.092601,"longitude":-91.871334,"courseId":"bear-creek-shellsburg-ia"},{"name":"Bear Creek","locationName":"Winthrop, WA","holeCount":9,"latitude":48.458736,"longitude":-120.135574,"courseId":"bear-creek-winthrop-wa"},{"name":"Bear Hollow","locationName":"Ava, MO","holeCount":18,"latitude":36.95335,"longitude":-92.67025,"courseId":"bear-hollow"},{"name":"Bear Mountain","locationName":"Bailey, CO","holeCount":22,"latitude":39.411593,"longitude":-105.439937,"courseId":"bear-mountain"},{"name":"Bear Pen Park","locationName":"Cleveland, MS","holeCount":18,"latitude":33.739633,"longitude":-90.757402,"courseId":"bear-pen-park"},{"name":"Bear River","locationName":"Grass Valley, CA","holeCount":9,"latitude":39.05169,"longitude":-121.068115,"courseId":"bear-river"},{"name":"Bear River City Park","locationName":"Bear River City, UT","holeCount":9,"latitude":41.616421,"longitude":-112.12162,"courseId":"bear-river-city-park"},{"name":"Bearcat @ Rock Hill HS","locationName":"Rock Hill, SC","holeCount":9,"latitude":34.902827,"longitude":-80.980729,"courseId":"bearcat-rock-hill-hs"},{"name":"Beardstown","locationName":"Beardstown, IL","holeCount":18,"latitude":40.010319,"longitude":-90.414745,"courseId":"beardstown"},{"name":"Bearskin Creek","locationName":"Monroe, NC","holeCount":18,"latitude":34.987801,"longitude":-80.559402,"courseId":"bearskin-creek"},{"name":"Beatrice Park","locationName":"Jonesboro, AR","holeCount":18,"latitude":35.821283,"longitude":-90.775706,"courseId":"beatrice-park"},{"name":"Beattie Park","locationName":"Lompoc, CA","holeCount":18,"latitude":34.6321,"longitude":-120.4438,"courseId":"beattie-park"},{"name":"Beatty Park","locationName":"Steubenville, OH","holeCount":18,"latitude":40.351221,"longitude":-80.623856,"courseId":"beatty-park"},{"name":"Beatty's Ford Park","locationName":"Denver, NC","holeCount":9,"latitude":35.481272,"longitude":-80.957621,"courseId":"beattys-ford-park"},{"name":"Beau Pre DiscGolfPark","locationName":"McKinleyville, CA","holeCount":18,"latitude":40.963187,"longitude":-124.096499,"courseId":"beau-pre-discgolfpark"},{"name":"Beaudoin Aceplace","locationName":"Amherstburg, ON","holeCount":6,"latitude":42.184298,"longitude":-83.070618,"courseId":"beaudoin-aceplace"},{"name":"Beaver Branch","locationName":"Townsend, DE","holeCount":18,"latitude":39.404752,"longitude":-75.655469,"courseId":"beaver-branch"},{"name":"Beaver Brook","locationName":"North Monmouth, ME","holeCount":18,"latitude":44.290973,"longitude":-70.07314,"courseId":"beaver-brook"},{"name":"Beaver City","locationName":"Beaver City, NE","holeCount":9,"latitude":40.135308,"longitude":-99.8333,"courseId":"beaver-city"},{"name":"Beaver Creek Mini","locationName":"Strasburg, PA","holeCount":18,"latitude":39.972249,"longitude":-76.151508,"courseId":"beaver-creek-mini"},{"name":"Beaver Creek Rec. Area","locationName":"Linton, ND","holeCount":9,"latitude":46.24947,"longitude":-100.52869,"courseId":"beaver-creek-rec-area"},{"name":"Beaver Creek Resort","locationName":"Avon, CO","holeCount":18,"latitude":39.582218,"longitude":-106.509148,"courseId":"beaver-creek-resort"},{"name":"Beaver Dam Disc Golf Trail","locationName":"Marshall, TX","holeCount":18,"latitude":32.465636,"longitude":-94.340501,"courseId":"beaver-dam-disc-golf-trail"},{"name":"Beaver Dick Park","locationName":"Rexburg, ID","holeCount":9,"latitude":43.826055,"longitude":-111.90657,"courseId":"beaver-dick-park"},{"name":"Beaver Island State Park","locationName":"Grand Island, NY","holeCount":18,"latitude":42.9645,"longitude":-78.966202,"courseId":"beaver-island-state-park"},{"name":"Beaver Meadows","locationName":"Parkersburg, IA","holeCount":9,"latitude":42.584,"longitude":-92.786,"courseId":"beaver-meadows-parkersburg-ia"},{"name":"Beaver Meadows","locationName":"Red Feather Lakes, CO","holeCount":19,"latitude":40.841801,"longitude":-105.651934,"courseId":"beaver-meadows-red-feather-lakes-co"},{"name":"Beaver Mountain","locationName":"Logan, UT","holeCount":18,"latitude":41.96852,"longitude":-111.540769,"courseId":"beaver-mountain"},{"name":"Beaver Park","locationName":"Newborn, GA","holeCount":9,"latitude":33.520736,"longitude":-83.719727,"courseId":"beaver-park"},{"name":"Beaver Ranch - Bluebird","locationName":"Conifer, CO","holeCount":20,"latitude":39.508607,"longitude":-105.299112,"courseId":"beaver-ranch-bluebird"},{"name":"Beaver Ranch - Main","locationName":"Conifer, CO","holeCount":21,"latitude":39.508607,"longitude":-105.299112,"courseId":"beaver-ranch-main"},{"name":"Beaver Tail","locationName":"Donovan, IL","holeCount":9,"latitude":40.944872,"longitude":-87.535449,"courseId":"beaver-tail"},{"name":"Beaverfork","locationName":"Conway, AR","holeCount":18,"latitude":35.140608,"longitude":-92.454459,"courseId":"beaverfork"},{"name":"Beaverwood","locationName":"St. George, UT","holeCount":18,"latitude":37.079153,"longitude":-113.570458,"courseId":"beaverwood"},{"name":"Bechovice DiscGolfPark","locationName":"Prague, Czech Republic","holeCount":9,"latitude":50.083867,"longitude":14.615639,"courseId":"bechovice-discgolfpark"},{"name":"Becker City Park","locationName":"Becker, MN","holeCount":18,"latitude":45.417661,"longitude":-93.871109,"courseId":"becker-city-park"},{"name":"Becker Family Course","locationName":"Council Grove, KS","holeCount":6,"latitude":38.664206,"longitude":-96.501713,"courseId":"becker-family-course"},{"name":"Beckley Hill","locationName":"Barre, VT","holeCount":18,"latitude":44.217541,"longitude":-72.510479,"courseId":"beckley-hill"},{"name":"Beckman High School","locationName":"Dyersville, IA","holeCount":9,"latitude":42.472711,"longitude":-91.110608,"courseId":"beckman-high-school"},{"name":"Becky Zallek","locationName":"Des Moines, IA","holeCount":18,"latitude":41.619637,"longitude":-93.643288,"courseId":"becky-zallek"},{"name":"Bedford School District","locationName":"Bedford, PA","holeCount":9,"latitude":40.013819,"longitude":-78.497561,"courseId":"bedford-school-district"},{"name":"Bedford Welcome Center","locationName":"Bedford, VA","holeCount":9,"latitude":37.325171,"longitude":-79.531376,"courseId":"bedford-welcome-center"},{"name":"Bedford YMCA","locationName":"Bedford, VA","holeCount":18,"latitude":37.339549,"longitude":-79.56079,"courseId":"bedford-ymca"},{"name":"Bedichek Middle School","locationName":"Austin, TX","holeCount":9,"latitude":30.194384,"longitude":-97.788802,"courseId":"bedichek-middle-school"},{"name":"Bedico Creek","locationName":"Madisonville, LA","holeCount":9,"latitude":30.46362,"longitude":-90.2334,"courseId":"bedico-creek"},{"name":"Bedworth Miners Welfare - Championship","locationName":"Bedworth, United Kingdom","holeCount":18,"latitude":52.476796,"longitude":-1.469153,"courseId":"bedworth-miners-welfare-championship"},{"name":"Bedworth Miners Welfare - Original","locationName":"Bedworth, United Kingdom","holeCount":18,"latitude":52.476796,"longitude":-1.469153,"courseId":"bedworth-miners-welfare-original"},{"name":"Beebe Community Pond","locationName":"Beebe, AR","holeCount":9,"latitude":35.076791,"longitude":-91.907104,"courseId":"beebe-community-pond"},{"name":"Beech Fork - Champ","locationName":"Barboursville, WV","holeCount":18,"latitude":38.308766,"longitude":-82.346028,"courseId":"beech-fork-champ"},{"name":"Beech Fork - Original","locationName":"Barboursville, WV","holeCount":9,"latitude":38.308,"longitude":-82.346,"courseId":"beech-fork-original"},{"name":"Beech Grove Middle School","locationName":"Beech Grove, IN","holeCount":9,"latitude":39.724853,"longitude":-86.096333,"courseId":"beech-grove-middle-school"},{"name":"Beech Hill Park","locationName":"Sackville, NB","holeCount":18,"latitude":45.945571,"longitude":-64.40089,"courseId":"beech-hill-park"},{"name":"Beech Mountain Resort","locationName":"Beech Mountain, NC","holeCount":18,"latitude":36.19498,"longitude":-81.878968,"courseId":"beech-mountain-resort"},{"name":"Beech Nut","locationName":"Hudson, IA","holeCount":9,"latitude":42.408333,"longitude":-92.456689,"courseId":"beech-nut"},{"name":"Begg Park","locationName":"Springfield, MI","holeCount":18,"latitude":42.325018,"longitude":-85.26524,"courseId":"begg-park"},{"name":"Belair Elementary School","locationName":"Jefferson City, MO","holeCount":6,"latitude":38.607112,"longitude":-92.216449,"courseId":"belair-elementary-school"},{"name":"Belgrade Lakes - Coyote Ridge","locationName":"Rome, ME","holeCount":18,"latitude":44.60025,"longitude":-69.901328,"courseId":"belgrade-lakes-coyote-ridge"},{"name":"Belgrade Lakes - Fox Run","locationName":"Rome, ME","holeCount":18,"latitude":44.60025,"longitude":-69.901328,"courseId":"belgrade-lakes-fox-run"},{"name":"Bell Creek Memorial Park","locationName":"Arlington, NE","holeCount":9,"latitude":41.455203,"longitude":-96.349668,"courseId":"bell-creek-memorial-park"},{"name":"Bell Park","locationName":"Greenwood, AR","holeCount":18,"latitude":35.227712,"longitude":-94.261032,"courseId":"bell-park"},{"name":"Bellamy Park","locationName":"Dover, NH","holeCount":18,"latitude":43.179218,"longitude":-70.89045,"courseId":"bellamy-park"},{"name":"Bellbrook Middle School","locationName":"Bellbrook, OH","holeCount":9,"latitude":39.662052,"longitude":-84.072779,"courseId":"bellbrook-middle-school"},{"name":"Belle Prairie Park","locationName":"Little Falls, MN","holeCount":12,"latitude":46.035065,"longitude":-94.342975,"courseId":"belle-prairie-park"},{"name":"Belle Starr","locationName":"Texanna, OK","holeCount":18,"latitude":35.332665,"longitude":-95.536046,"courseId":"belle-starr"},{"name":"Belleview Elementary School","locationName":"Rock Hill, SC","holeCount":1,"latitude":34.919728,"longitude":-81.002208,"courseId":"belleview-elementary-school"},{"name":"Bellevue State Park","locationName":"Wilmington, DE","holeCount":18,"latitude":39.7761,"longitude":-75.4975,"courseId":"bellevue-state-park"},{"name":"Bellingham Technical College","locationName":"Bellingham, WA","holeCount":5,"latitude":48.768115,"longitude":-122.509089,"courseId":"bellingham-technical-college"},{"name":"Bellis Fairways","locationName":"Bellingham, WA","holeCount":18,"latitude":48.787771,"longitude":-122.491792,"courseId":"bellis-fairways"},{"name":"Bellows Field Beach","locationName":"Waimanalo, HI","holeCount":9,"latitude":21.367912,"longitude":-157.710484,"courseId":"bellows-field-beach"},{"name":"Belmont","locationName":"Belmont, ON","holeCount":9,"latitude":42.882603,"longitude":-81.085321,"courseId":"belmont"},{"name":"Belmont Park","locationName":"Dayton, OH","holeCount":19,"latitude":39.732691,"longitude":-84.136106,"courseId":"belmont-park"},{"name":"Belmont West","locationName":"Dayton, OH","holeCount":19,"latitude":39.732691,"longitude":-84.136106,"courseId":"belmont-west"},{"name":"Beloit Village Park","locationName":"Beloit, OH","holeCount":9,"latitude":40.92314,"longitude":-80.99858,"courseId":"beloit-village-park"},{"name":"Belvidere Park","locationName":"Belvidere, IL","holeCount":9,"latitude":42.25607,"longitude":-88.855925,"courseId":"belvidere-park"},{"name":"Bemidji City Park","locationName":"Bemidji, MN","holeCount":18,"latitude":47.488895,"longitude":-94.900139,"courseId":"bemidji-city-park"},{"name":"Bemidji Winter Course","locationName":"Bemidji, MN","holeCount":9,"latitude":47.48875,"longitude":-94.8988,"courseId":"bemidji-winter-course"},{"name":"Ben Burr Jr.","locationName":"Spokane, WA","holeCount":3,"latitude":47.614336,"longitude":-117.346792,"courseId":"ben-burr-jr"},{"name":"Ben Geren Park - Orange","locationName":"Fort Smith, AR","holeCount":18,"latitude":35.311273,"longitude":-94.36419,"courseId":"ben-geren-park-orange"},{"name":"Ben Geren Park - White","locationName":"Fort Smith, AR","holeCount":18,"latitude":35.320804,"longitude":-94.349294,"courseId":"ben-geren-park-white"},{"name":"Ben Geren Park - Yellow","locationName":"Fort Smith, AR","holeCount":18,"latitude":35.311273,"longitude":-94.36419,"courseId":"ben-geren-park-yellow"},{"name":"Benbrook Ranch Park 2.0","locationName":"Leander, TX","holeCount":18,"latitude":30.586772,"longitude":-97.877715,"courseId":"benbrook-ranch-park-20"},{"name":"Bending Pines","locationName":"Whispering Pines, NC","holeCount":18,"latitude":35.242371,"longitude":-79.353348,"courseId":"bending-pines"},{"name":"Benedict Park","locationName":"Brighton, CO","holeCount":9,"latitude":39.9798,"longitude":-104.7997,"courseId":"benedict-park"},{"name":"Bengal Ridge @ Idaho State","locationName":"Pocatello, ID","holeCount":18,"latitude":42.870295,"longitude":-112.40912,"courseId":"bengal-ridge-idaho-state"},{"name":"Benicia Community Park","locationName":"Benicia, CA","holeCount":9,"latitude":38.085485,"longitude":-122.158302,"courseId":"benicia-community-park"},{"name":"Bennett High School","locationName":"Bennett, CO","holeCount":9,"latitude":39.760273,"longitude":-104.425143,"courseId":"bennett-high-school"},{"name":"Bennett Park","locationName":"Howard, OH","holeCount":9,"latitude":40.4105,"longitude":-82.35149,"courseId":"bennett-park-howard-oh"},{"name":"Bennett Park","locationName":"Liberty, MO","holeCount":9,"latitude":39.256482,"longitude":-94.441346,"courseId":"bennett-park-liberty-mo"},{"name":"Bennett Park","locationName":"Mineville, NS","holeCount":9,"latitude":44.710512,"longitude":-63.390341,"courseId":"bennett-park-mineville-ns"},{"name":"Bennett's Creek","locationName":"Suffolk, VA","holeCount":18,"latitude":36.850711,"longitude":-76.480524,"courseId":"bennetts-creek"},{"name":"Bennington","locationName":"Bennington, KS","holeCount":6,"latitude":39.03495,"longitude":-97.596462,"courseId":"bennington"},{"name":"Benson","locationName":"Benson, MN","holeCount":9,"latitude":45.321801,"longitude":-95.620333,"courseId":"benson"},